"","Partner.ID","Field.Partner.Name","sector","Loan.Theme.ID","Loan.Theme.Type","country","forkiva","region","geocode_old","ISO","number","amount","LocationName","geocode","names","geo","lat","lon","mpi_region","mpi_geo","rural_pct"
"1271",65,"BRAC Uganda","General Financial Inclusion","a1050000000wezZ","General","Uganda","No","Abaita Ababiri","","UGA",1,1125,"Abaita Ababiri, Uganda","[(0.09353349999999999, 32.4990828)]","Abayita Ababiri; Lyamutundwe; Wakiso; Central Region; Uganda","(0.09353349999999999, 32.4990828)",0.0935335,32.4990828,"West Nile, Uganda","(0.3157239, 32.575568)",70
"1272",65,"BRAC Uganda","General Financial Inclusion","a1050000000sg1c","Youth","Uganda","No","Abaita Ababiri","","UGA",1,850,"Abaita Ababiri, Uganda","[(0.09353349999999999, 32.4990828)]","Abayita Ababiri; Lyamutundwe; Wakiso; Central Region; Uganda","(0.09353349999999999, 32.4990828)",0.0935335,32.4990828,"West Nile, Uganda","(0.3157239, 32.575568)",70
"1273",65,"BRAC Uganda","General Financial Inclusion","a1050000000wezZ","General","Uganda","No","Bowama","","UGA",5,3925,"Bowama, Uganda","[(0.0642441, 32.1078868)]","Buwama; Mpigi; Central Region; Uganda","(0.0642441, 32.1078868)",0.0642441,32.1078868,"East Central, Uganda","(0.2540775, 31.99280779999999)",70
"1274",65,"BRAC Uganda","General Financial Inclusion","a1050000000wezZ","General","Uganda","No","Bugembe","(0.4797222, 33.2344444)","UGA",1,750,"Bugembe, Uganda","[(0.465467, 33.2391334)]","Bugembe; Jinja; Eastern Region; Uganda","(0.465467, 33.2391334)",0.465467,33.2391334,"Central 2, Uganda","(0.3729261, 32.6357573)",70
"1275",65,"BRAC Uganda","General Financial Inclusion","a1050000000sg1c","Youth","Uganda","No","Bugembe","(0.4797222, 33.2344444)","UGA",2,425,"Bugembe, Uganda","[(0.465467, 33.2391334)]","Bugembe; Jinja; Eastern Region; Uganda","(0.465467, 33.2391334)",0.465467,33.2391334,"Central 2, Uganda","(0.3729261, 32.6357573)",70
"1276",65,"BRAC Uganda","General Financial Inclusion","a1050000000sg1c","Youth","Uganda","No","Bugiri","(-0.25, 33.75)","UGA",2,375,"Bugiri, Uganda","[(0.5671364999999999, 33.7461847)]","Bugiri; Namayingo; Eastern Region; Uganda","(0.5671364999999999, 33.7461847)",0.5671365,33.7461847,"Eastern, Uganda","(1.2692186, 33.438353)",70
"1277",65,"BRAC Uganda","General Financial Inclusion","a1050000000wezZ","General","Uganda","No","Bulenga","(0.3166667, 32.5)","UGA",1,1050,"Bulenga, Uganda","[(0.3255456, 32.5031163)]","Bulenga; Wakiso; Central Region; Uganda","(0.3255456, 32.5031163)",0.3255456,32.5031163,"West Nile, Uganda","(0.3157239, 32.575568)",70
"1278",65,"BRAC Uganda","General Financial Inclusion","a1050000000sg1c","Youth","Uganda","No","Bulenga","(0.3166667, 32.5)","UGA",41,9800,"Bulenga, Uganda","[(0.3255456, 32.5031163)]","Bulenga; Wakiso; Central Region; Uganda","(0.3255456, 32.5031163)",0.3255456,32.5031163,"West Nile, Uganda","(0.3157239, 32.575568)",70
"1279",65,"BRAC Uganda","General Financial Inclusion","a1050000000wezZ","General","Uganda","No","Bundibugyo","","UGA",13,11175,"Bundibugyo, Uganda","[(0.707531, 30.0636349)]","Bundibugyo; Bundibugyo; Western Region; Uganda","(0.707531, 30.0636349)",0.707531,30.0636349,"Western, Uganda","(0.2580521, 30.5279096)",70
"1280",65,"BRAC Uganda","General Financial Inclusion","a1050000000wezZ","General","Uganda","No","Busunju","","UGA",3,2075,"Busunju, Uganda","[(0.566086, 32.2044019)]","Busunju; Mityana; Central Region; Uganda","(0.566086, 32.2044019)",0.566086,32.2044019,"East Central, Uganda","(0.2540775, 31.99280779999999)",70
"1281",65,"BRAC Uganda","General Financial Inclusion","a1050000000sg1c","Youth","Uganda","No","Buwama","(0.0608333, 32.0963889)","UGA",73,15250,"Buwama, Uganda","[(0.0642441, 32.1078868)]","Buwama; Mpigi; Central Region; Uganda","(0.0642441, 32.1078868)",0.0642441,32.1078868,"East Central, Uganda","(0.2540775, 31.99280779999999)",70
"1282",65,"BRAC Uganda","General Financial Inclusion","a1050000000sg1c","Youth","Uganda","No","Buwenge","(0.6422222, 33.1744444)","UGA",121,22225,"Buwenge, Uganda","[(0.6484417, 33.171699)]","Buwenge; Jinja; Eastern Region; Uganda","(0.6484417, 33.171699)",0.6484417,33.171699,"Central 2, Uganda","(0.3729261, 32.6357573)",70
"1283",65,"BRAC Uganda","General Financial Inclusion","a1050000000wezZ","General","Uganda","No","Buwenge","(0.6422222, 33.1744444)","UGA",2,1500,"Buwenge, Uganda","[(0.6484417, 33.171699)]","Buwenge; Jinja; Eastern Region; Uganda","(0.6484417, 33.171699)",0.6484417,33.171699,"Central 2, Uganda","(0.3729261, 32.6357573)",70
"1284",65,"BRAC Uganda","General Financial Inclusion","a1050000000wezZ","General","Uganda","No","Bwera","","UGA",23,18400,"Bwera, Uganda","[(0.0912081, 29.7512903)]","Mpondwe; Kasese; Western Region; Uganda","(0.0912081, 29.7512903)",0.0912081,29.7512903,"Western, Uganda","(0.2580521, 30.5279096)",70
"1285",65,"BRAC Uganda","General Financial Inclusion","a1050000000wezZ","General","Uganda","No","Entebbe","","UGA",1,850,"Entebbe, Uganda","[(0.0511839, 32.463708)]","Entebbe; Wakiso; Central Region; Uganda","(0.0511839, 32.463708)",0.0511839,32.463708,"West Nile, Uganda","(0.3157239, 32.575568)",70
"1286",65,"BRAC Uganda","General Financial Inclusion","a1050000000wezZ","General","Uganda","No","Fort Portal","","UGA",24,20600,"Fort Portal, Uganda","[(0.6546257, 30.2801166)]","Fort Portal; Kabarole; Western Region; Uganda","(0.6546257, 30.2801166)",0.6546257,30.2801166,"Western, Uganda","(0.2580521, 30.5279096)",70
"1287",65,"BRAC Uganda","General Financial Inclusion","a1050000000sg1c","Youth","Uganda","No","GABA","","UGA",53,13700,"GABA, Uganda","[(0.2572382, 32.6319844)]","Ggaba; Makindye; Kampala; Kampala; Central Region; Uganda","(0.2572382, 32.6319844)",0.2572382,32.6319844,"West Nile, Uganda","(0.3157239, 32.575568)",70
"1288",65,"BRAC Uganda","General Financial Inclusion","a1050000000wezZ","General","Uganda","No","GABA","","UGA",3,2875,"GABA, Uganda","[(0.2572382, 32.6319844)]","Ggaba; Makindye; Kampala; Kampala; Central Region; Uganda","(0.2572382, 32.6319844)",0.2572382,32.6319844,"West Nile, Uganda","(0.3157239, 32.575568)",70
"1289",65,"BRAC Uganda","General Financial Inclusion","a1050000000wezZ","General","Uganda","No","Hima","","UGA",13,11200,"Hima, Uganda","[(0.2935023, 30.1849082)]","Hima; Kasese; Western Region; Uganda","(0.2935023, 30.1849082)",0.2935023,30.1849082,"Western, Uganda","(0.2580521, 30.5279096)",70
"1290",65,"BRAC Uganda","General Financial Inclusion","a1050000000sg1c","Youth","Uganda","No","Iganga","(0.6091667, 33.4686111)","UGA",57,9550,"Iganga, Uganda","[(0.6045832999999999, 33.4719832)]","Iganga; Iganga; Eastern Region; Uganda","(0.6045832999999999, 33.4719832)",0.6045833,33.4719832,"Eastern, Uganda","(1.2692186, 33.438353)",70
"1291",65,"BRAC Uganda","General Financial Inclusion","a1050000000sg1c","Youth","Uganda","No","Jinja","(0.5833333, 33.25)","UGA",1,575,"Jinja, Uganda","[(0.4478565999999999, 33.2026122)]","Jinja; Jinja; Eastern Region; Uganda","(0.4478565999999999, 33.2026122)",0.4478566,33.2026122,"Central 2, Uganda","(0.3729261, 32.6357573)",70
"1292",65,"BRAC Uganda","General Financial Inclusion","a1050000000wezZ","General","Uganda","No","Jinja","(0.5833333, 33.25)","UGA",1,575,"Jinja, Uganda","[(0.4478565999999999, 33.2026122)]","Jinja; Jinja; Eastern Region; Uganda","(0.4478565999999999, 33.2026122)",0.4478566,33.2026122,"Central 2, Uganda","(0.3729261, 32.6357573)",70
"1293",65,"BRAC Uganda","General Financial Inclusion","a1050000000sg1c","Youth","Uganda","No","Kabuusu","","UGA",32,7025,"Kabuusu, Uganda","[(0.2971313, 32.5538458)]","Gomotoka Road; Rubaga; Kampala; Kampala; Central Region; Uganda","(0.2971313, 32.5538458)",0.2971313,32.5538458,"West Nile, Uganda","(0.3157239, 32.575568)",70
"1294",65,"BRAC Uganda","General Financial Inclusion","a1050000000wezZ","General","Uganda","No","Kachwamba","","UGA",11,10500,"Kachwamba, Uganda","[(-0.7999999999999999, 31.15)]","Kachwamba; Isingiro; Western Region; Uganda","(-0.7999999999999999, 31.15)",-0.8,31.15,"Western, Uganda","(0.2580521, 30.5279096)",70
"1295",65,"BRAC Uganda","General Financial Inclusion","a1050000000wezZ","General","Uganda","No","Kajjansi","","UGA",5,4750,"Kajjansi, Uganda","[(0.2070254, 32.5401025)]","Kajjansi; Wakiso; Central Region; Uganda","(0.2070254, 32.5401025)",0.2070254,32.5401025,"West Nile, Uganda","(0.3157239, 32.575568)",70
"1296",65,"BRAC Uganda","General Financial Inclusion","a1050000000wezZ","General","Uganda","No","Kalerwe","","UGA",1,750,"Kalerwe, Uganda","[(0.3575816, 32.5683826)]","Kalerwe; Kawempe; Kampala; Kampala; Central Region; Uganda","(0.3575816, 32.5683826)",0.3575816,32.5683826,"Kampala, Uganda","(0.3475964, 32.5825197)",70
"1297",65,"BRAC Uganda","General Financial Inclusion","a1050000000sg1c","Youth","Uganda","No","Kaliro","","UGA",26,4550,"Kaliro, Uganda","[(1.0431107, 33.4831906)]","Kaliro; Eastern Region; Uganda","(1.0431107, 33.4831906)",1.0431107,33.4831906,"Eastern, Uganda","(1.2692186, 33.438353)",70
"1298",65,"BRAC Uganda","General Financial Inclusion","a1050000000sg1c","Youth","Uganda","No","Kamuli","(1.0833333, 33.25)","UGA",1,700,"Kamuli, Uganda","[(0.944785, 33.126717)]","Kamuli; Kamuli; Eastern Region; Uganda","(0.944785, 33.126717)",0.944785,33.126717,"Eastern, Uganda","(1.2692186, 33.438353)",70
"1299",65,"BRAC Uganda","General Financial Inclusion","a1050000000wezZ","General","Uganda","No","Kamuli","(1.0833333, 33.25)","UGA",5,4225,"Kamuli, Uganda","[(0.944785, 33.126717)]","Kamuli; Kamuli; Eastern Region; Uganda","(0.944785, 33.126717)",0.944785,33.126717,"Eastern, Uganda","(1.2692186, 33.438353)",70
"1300",65,"BRAC Uganda","General Financial Inclusion","a1050000000wezZ","General","Uganda","No","Kamwenge","","UGA",9,7650,"Kamwenge, Uganda","[(0.225793, 30.4818446)]","Kamwenge; Western Region; Uganda","(0.225793, 30.4818446)",0.225793,30.4818446,"Western, Uganda","(0.2580521, 30.5279096)",70
"1301",65,"BRAC Uganda","General Financial Inclusion","a1050000000sg1c","Youth","Uganda","No","Kangulumira","(0.5816667, 33.0294444)","UGA",67,11625,"Kangulumira, Uganda","[(0.5816669999999999, 33.029444)]","Kangulumira; Wilaya ya Kayunga; Central Region; Uganda","(0.5816669999999999, 33.029444)",0.581667,33.029444,"Central 2, Uganda","(0.3729261, 32.6357573)",70
"1302",65,"BRAC Uganda","General Financial Inclusion","a1050000000sg1c","Youth","Uganda","No","Kasangati","(0.4380556, 32.5863889)","UGA",62,14125,"Kasangati, Uganda","[(0.4409481, 32.6023084)]","Kasangati; Wakiso; Central Region; Uganda","(0.4409481, 32.6023084)",0.4409481,32.6023084,"Central 2, Uganda","(0.3729261, 32.6357573)",70
"1303",65,"BRAC Uganda","General Financial Inclusion","a1050000000wezZ","General","Uganda","No","Kasese","","UGA",17,16200,"Kasese, Uganda","[(0.1698986, 30.078078)]","Kasese; Kasese; Western Region; Uganda","(0.1698986, 30.078078)",0.1698986,30.078078,"Western, Uganda","(0.2580521, 30.5279096)",70
"1304",65,"BRAC Uganda","General Financial Inclusion","a1050000000wezZ","General","Uganda","No","Kasubi","(0.2972222, 32.9677778)","UGA",2,2125,"Kasubi, Uganda","[(0.3288156, 32.5537777)]","Masiro Road; Rubaga; Kampala; Kampala; Central Region; Uganda","(0.3288156, 32.5537777)",0.3288156,32.5537777,"West Nile, Uganda","(0.3157239, 32.575568)",70
"1305",65,"BRAC Uganda","General Financial Inclusion","a1050000000wezZ","General","Uganda","No","Kasusu","","UGA",4,3800,"Kasusu, Uganda","[(0.6242803, 30.2558112)]","Uganda; Kabarole; Western Region","(0.6242803, 30.2558112)",0.6242803,30.2558112,"Western, Uganda","(0.2580521, 30.5279096)",70
"1306",65,"BRAC Uganda","General Financial Inclusion","a1050000000sg1c","Youth","Uganda","No","Kayunga","(1.0, 32.8666667)","UGA",47,10800,"Kayunga, Uganda","[(0.9860182000000001, 32.85357550000001)]","Kayunga; Central Region; Uganda","(0.9860182000000001, 32.85357550000001)",0.9860182,32.8535755,"Eastern, Uganda","(1.2692186, 33.438353)",70
"1307",65,"BRAC Uganda","General Financial Inclusion","a1050000000wezZ","General","Uganda","No","Kayunga","(1.0, 32.8666667)","UGA",2,1950,"Kayunga, Uganda","[(0.9860182000000001, 32.85357550000001)]","Kayunga; Central Region; Uganda","(0.9860182000000001, 32.85357550000001)",0.9860182,32.8535755,"Eastern, Uganda","(1.2692186, 33.438353)",70
"1308",65,"BRAC Uganda","General Financial Inclusion","a1050000000sg1c","Youth","Uganda","No","Kireka","(0.3475, 32.6491667)","UGA",3,700,"Kireka, Uganda","[(0.6, 32.583333)]","Kireka; Luwero; Central Region; Uganda","(0.6, 32.583333)",0.6,32.583333,"Central 2, Uganda","(0.3729261, 32.6357573)",70
"1309",65,"BRAC Uganda","General Financial Inclusion","a1050000000sg1c","Youth","Uganda","No","Kisasi","","UGA",3,275,"Kisasi, Uganda","[(0.3614407, 32.5966549)]","Kisaasi; Kawempe; Kampala; Kampala; Central Region; Uganda","(0.3614407, 32.5966549)",0.3614407,32.5966549,"Kampala, Uganda","(0.3475964, 32.5825197)",70
"1310",65,"BRAC Uganda","General Financial Inclusion","a1050000000wezZ","General","Uganda","No","Kisekende","","UGA",19,14775,"Kisekende, Uganda","[(0.5434608, 31.40335679999999)]","Uganda; Mubende; Central Region","(0.5434608, 31.40335679999999)",0.5434608,31.4033568,"East Central, Uganda","(0.2540775, 31.99280779999999)",70
"1311",65,"BRAC Uganda","General Financial Inclusion","a1050000000wezZ","General","Uganda","No","Kitintale","","UGA",3,2675,"Kitintale, Uganda","[(0.3107039, 32.6348102)]","Kitintale; Nakawa; Kampala; Kampala; Central Region; Uganda","(0.3107039, 32.6348102)",0.3107039,32.6348102,"West Nile, Uganda","(0.3157239, 32.575568)",70
"1312",65,"BRAC Uganda","General Financial Inclusion","a1050000000sg1c","Youth","Uganda","No","Kiyinda","","UGA",23,4875,"Kiyinda, Uganda","[(0.674442, 32.0520115)]","Uganda; Kiboga; Central Region","(0.674442, 32.0520115)",0.674442,32.0520115,"East Central, Uganda","(0.2540775, 31.99280779999999)",70
"1313",65,"BRAC Uganda","General Financial Inclusion","a1050000000wezZ","General","Uganda","No","Kiyinda","","UGA",11,7675,"Kiyinda, Uganda","[(0.674442, 32.0520115)]","Uganda; Kiboga; Central Region","(0.674442, 32.0520115)",0.674442,32.0520115,"East Central, Uganda","(0.2540775, 31.99280779999999)",70
"1314",65,"BRAC Uganda","General Financial Inclusion","a1050000000sg1c","Youth","Uganda","No","Kumi","(1.4166667, 34.0)","UGA",3,325,"Kumi, Uganda","[(1.4856295, 33.9331874)]","Kumi; Kumi; Eastern Region; Uganda","(1.4856295, 33.9331874)",1.4856295,33.9331874,"Eastern, Uganda","(1.2692186, 33.438353)",70
"1315",65,"BRAC Uganda","General Financial Inclusion","a1050000000wezZ","General","Uganda","No","Kyenjojo","","UGA",4,3875,"Kyenjojo, Uganda","[(0.6092923, 30.6401231)]","Kyenjojo; Kyenjojo; Western Region; Uganda","(0.6092923, 30.6401231)",0.6092923,30.6401231,"Western, Uganda","(0.2580521, 30.5279096)",70
"1316",65,"BRAC Uganda","General Financial Inclusion","a1050000000sg1c","Youth","Uganda","No","Lukaya","","UGA",40,7150,"Lukaya, Uganda","[(-0.1448456, 31.8761846)]","Lukaya; Masaka; Central Region; Uganda","(-0.1448456, 31.8761846)",-0.1448456,31.8761846,"East Central, Uganda","(0.2540775, 31.99280779999999)",70
"1317",65,"BRAC Uganda","General Financial Inclusion","a1050000000wezZ","General","Uganda","No","Lukaya","","UGA",3,2125,"Lukaya, Uganda","[(-0.1448456, 31.8761846)]","Lukaya; Masaka; Central Region; Uganda","(-0.1448456, 31.8761846)",-0.1448456,31.8761846,"East Central, Uganda","(0.2540775, 31.99280779999999)",70
"1318",65,"BRAC Uganda","General Financial Inclusion","a1050000000wezZ","General","Uganda","No","Maganjo","","UGA",2,1650,"Maganjo, Uganda","[(0.393245, 32.5494767)]","P.O.Box 6738; Bombo Road; Kampala; Wakiso; Central Region; Uganda","(0.393245, 32.5494767)",0.393245,32.5494767,"Kampala, Uganda","(0.3475964, 32.5825197)",70
"1319",65,"BRAC Uganda","General Financial Inclusion","a1050000000wezZ","General","Uganda","No","Makindye","(0.2844444, 32.5916667)","UGA",2,1700,"Makindye, Uganda","[(0.2781687, 32.5853469)]","Makindye; Makindye; Kampala; Kampala; Central Region; Uganda","(0.2781687, 32.5853469)",0.2781687,32.5853469,"West Nile, Uganda","(0.3157239, 32.575568)",70
"1320",65,"BRAC Uganda","General Financial Inclusion","a1050000000sg1c","Youth","Uganda","No","Makindye","(0.2844444, 32.5916667)","UGA",65,13400,"Makindye, Uganda","[(0.2781687, 32.5853469)]","Makindye; Makindye; Kampala; Kampala; Central Region; Uganda","(0.2781687, 32.5853469)",0.2781687,32.5853469,"West Nile, Uganda","(0.3157239, 32.575568)",70
"1321",65,"BRAC Uganda","General Financial Inclusion","a1050000000sg1c","Youth","Uganda","No","Mbale","(1.0644444, 34.1794444)","UGA",5,950,"Mbale, Uganda","[(1.0784436, 34.1810057)]","Mbale; Mbale; Eastern Region; Uganda","(1.0784436, 34.1810057)",1.0784436,34.1810057,"Eastern, Uganda","(1.2692186, 33.438353)",70
"1322",65,"BRAC Uganda","General Financial Inclusion","a1050000000sg1c","Youth","Uganda","No","Mityana","(0.4175, 32.0227778)","UGA",22,3900,"Mityana, Uganda","[(0.4016398, 32.043969)]","Mityana; Mityana; Central Region; Uganda","(0.4016398, 32.043969)",0.4016398,32.043969,"East Central, Uganda","(0.2540775, 31.99280779999999)",70
"1323",65,"BRAC Uganda","General Financial Inclusion","a1050000000wezZ","General","Uganda","No","Mityana","(0.4175, 32.0227778)","UGA",5,4550,"Mityana, Uganda","[(0.4016398, 32.043969)]","Mityana; Mityana; Central Region; Uganda","(0.4016398, 32.043969)",0.4016398,32.043969,"East Central, Uganda","(0.2540775, 31.99280779999999)",70
"1324",65,"BRAC Uganda","General Financial Inclusion","a1050000000wezZ","General","Uganda","No","Mubende","(0.5, 31.6666667)","UGA",11,10475,"Mubende, Uganda","[(0.5772758, 31.5370003)]","Mubende; Central Region; Uganda","(0.5772758, 31.5370003)",0.5772758,31.5370003,"East Central, Uganda","(0.2540775, 31.99280779999999)",70
"1325",65,"BRAC Uganda","General Financial Inclusion","a1050000000wezZ","General","Uganda","No","Mukono","(0.25, 32.9166667)","UGA",3,2850,"Mukono, Uganda","[(0.3548655, 32.7520139)]","Mukono; Mukono; Central Region; Uganda","(0.3548655, 32.7520139)",0.3548655,32.7520139,"Central 2, Uganda","(0.3729261, 32.6357573)",70
"1326",65,"BRAC Uganda","General Financial Inclusion","a1050000000wezZ","General","Uganda","No","Nakifuma","(0.5436111, 32.79)","UGA",12,9750,"Nakifuma, Uganda","[(0.5395004, 32.7887007)]","Nakifuma; Mukono; Central Region; Uganda","(0.5395004, 32.7887007)",0.5395004,32.7887007,"Central 2, Uganda","(0.3729261, 32.6357573)",70
"1327",65,"BRAC Uganda","General Financial Inclusion","a1050000000sg1c","Youth","Uganda","No","Nakifuma","(0.5436111, 32.79)","UGA",65,12275,"Nakifuma, Uganda","[(0.5395004, 32.7887007)]","Nakifuma; Mukono; Central Region; Uganda","(0.5395004, 32.7887007)",0.5395004,32.7887007,"Central 2, Uganda","(0.3729261, 32.6357573)",70
"1328",65,"BRAC Uganda","General Financial Inclusion","a1050000000sg1c","Youth","Uganda","No","Namutumba","","UGA",33,6975,"Namutumba, Uganda","[(0.8360898, 33.6860965)]","['Namutumba', 'Namutumba', 'Eastern Region', 'Uganda']","(0.8360898, 33.6860965)",0.8360898,33.6860965,"Eastern, Uganda","(1.2692186, 33.438353)",70
"1329",65,"BRAC Uganda","General Financial Inclusion","a1050000000wezZ","General","Uganda","No","Nansana","","UGA",3,3600,"Nansana, Uganda","[(0.3696651, 32.5287884)]","Nansana; Wakiso; Central Region; Uganda","(0.3696651, 32.5287884)",0.3696651,32.5287884,"Kampala, Uganda","(0.3475964, 32.5825197)",70
"1330",65,"BRAC Uganda","General Financial Inclusion","a1050000000wezZ","General","Uganda","No","Nateete","","UGA",10,9800,"Nateete, Uganda","[(0.3000766, 32.5332776)]","Nateete Road; Rubaga; Kampala; Kampala; Central Region; Uganda","(0.3000766, 32.5332776)",0.3000766,32.5332776,"West Nile, Uganda","(0.3157239, 32.575568)",70
"1331",65,"BRAC Uganda","General Financial Inclusion","a1050000000sg1c","Youth","Uganda","No","Nateete","","UGA",1,350,"Nateete, Uganda","[(0.3000766, 32.5332776)]","Nateete Road; Rubaga; Kampala; Kampala; Central Region; Uganda","(0.3000766, 32.5332776)",0.3000766,32.5332776,"West Nile, Uganda","(0.3157239, 32.575568)",70
"1332",65,"BRAC Uganda","General Financial Inclusion","a1050000000sg1c","Youth","Uganda","No","Njeru","(0.4186111, 33.1730556)","UGA",71,15600,"Njeru, Uganda","[(0.4263679, 33.1492106)]","Njeru; Mukono; Central Region; Uganda","(0.4263679, 33.1492106)",0.4263679,33.1492106,"Central 2, Uganda","(0.3729261, 32.6357573)",70
"1333",65,"BRAC Uganda","General Financial Inclusion","a1050000000wezZ","General","Uganda","No","Njeru","(0.4186111, 33.1730556)","UGA",3,2850,"Njeru, Uganda","[(0.4263679, 33.1492106)]","Njeru; Mukono; Central Region; Uganda","(0.4263679, 33.1492106)",0.4263679,33.1492106,"Central 2, Uganda","(0.3729261, 32.6357573)",70
"1334",65,"BRAC Uganda","General Financial Inclusion","a1050000000sg1c","Youth","Uganda","No","Pallisa","(1.1666667, 33.8333333)","UGA",2,200,"Pallisa, Uganda","[(1.1706966, 33.7098569)]","Pallisa; Pallisa; Eastern Region; Uganda","(1.1706966, 33.7098569)",1.1706966,33.7098569,"Eastern, Uganda","(1.2692186, 33.438353)",70
"1335",65,"BRAC Uganda","General Financial Inclusion","a1050000000wezZ","General","Uganda","No","Rukoki","(0.2, 30.1)","UGA",15,11725,"Rukoki, Uganda","[(0.2043226, 30.1098472)]","Rukoki; Kasese; Western Region; Uganda","(0.2043226, 30.1098472)",0.2043226,30.1098472,"Western, Uganda","(0.2580521, 30.5279096)",70
"1336",65,"BRAC Uganda","General Financial Inclusion","a1050000000wezZ","General","Uganda","No","Rwimi","","UGA",3,2825,"Rwimi, Uganda","[(0.379688, 30.2173591)]","Uganda; Kabarole; Western Region","(0.379688, 30.2173591)",0.379688,30.2173591,"Western, Uganda","(0.2580521, 30.5279096)",70
"1337",65,"BRAC Uganda","General Financial Inclusion","a1050000000sg1c","Youth","Uganda","No","Seeta","(0.0, 31.9333333)","UGA",21,4425,"Seeta, Uganda","[(0.3669235, 32.7124903)]","Seeta; Mukono; Central Region; Uganda","(0.3669235, 32.7124903)",0.3669235,32.7124903,"Central 2, Uganda","(0.3729261, 32.6357573)",70
"1338",65,"BRAC Uganda","General Financial Inclusion","a1050000000sg1c","Youth","Uganda","No","Siroko","","UGA",7,1400,"Siroko, Uganda","[(1.2302274, 34.2491064)]","Sironko; Bulambuli; Eastern Region; Uganda","(1.2302274, 34.2491064)",1.2302274,34.2491064,"Eastern, Uganda","(1.2692186, 33.438353)",70
"1339",65,"BRAC Uganda","General Financial Inclusion","a1050000000sg1c","Youth","Uganda","No","Tororo","(0.75, 34.0833333)","UGA",1,75,"Tororo, Uganda","[(0.6782273999999999, 34.1865669)]","Tororo; Tororo; Eastern Region; Uganda","(0.6782273999999999, 34.1865669)",0.6782274,34.1865669,"Eastern, Uganda","(1.2692186, 33.438353)",70
"1340",65,"BRAC Uganda","General Financial Inclusion","a1050000000wezZ","General","Uganda","No","Wakiso","","UGA",5,4950,"Wakiso, Uganda","[(0.3987229, 32.47927440000001)]","Wakiso; Wakiso; Central Region; Uganda","(0.3987229, 32.47927440000001)",0.3987229,32.4792744,"Kampala, Uganda","(0.3475964, 32.5825197)",70
"1341",65,"BRAC Uganda","General Financial Inclusion","a1050000000sg1c","Youth","Uganda","No","Zanna","","UGA",1,850,"Zanna, Uganda","[(0.2624052, 32.5570715)]","Zana; Kampala; Wakiso; Central Region; Uganda","(0.2624052, 32.5570715)",0.2624052,32.5570715,"West Nile, Uganda","(0.3157239, 32.575568)",70
"1342",65,"BRAC Uganda","General Financial Inclusion","a1050000000wezZ","General","Uganda","No","Zanna","","UGA",7,5500,"Zanna, Uganda","[(0.2624052, 32.5570715)]","Zana; Kampala; Wakiso; Central Region; Uganda","(0.2624052, 32.5570715)",0.2624052,32.5570715,"West Nile, Uganda","(0.3157239, 32.575568)",70
"1343",65,"BRAC Uganda","General Financial Inclusion","a1050000000sg1c","Youth","Uganda","No","Zirobwe","","UGA",89,14800,"Zirobwe, Uganda","[(0.686881, 32.69101)]","Zirobwe; Luwero; Central Region; Uganda","(0.686881, 32.69101)",0.686881,32.69101,"Central 2, Uganda","(0.3729261, 32.6357573)",70
"1344",65,"BRAC Uganda","General Financial Inclusion","a1050000000wezZ","General","Uganda","No","kasambya","","UGA",12,11325,"kasambya, Uganda","[(1.1265805, 31.442761)]","Kasambya; Kyankwanzi; Central Region; Uganda","(1.1265805, 31.442761)",1.1265805,31.442761,"Southwest, Uganda","(1.373333, 32.290275)",70
"1345",65,"BRAC Uganda","General Financial Inclusion","a1050000000sg1c","Youth","Uganda","No","kibuli","","UGA",30,6750,"kibuli, Uganda","[(0.3108412, 32.5952415)]","Kibuli; Makindye; Kampala; Kampala; Central Region; Uganda","(0.3108412, 32.5952415)",0.3108412,32.5952415,"West Nile, Uganda","(0.3157239, 32.575568)",70
"1346",65,"BRAC Uganda","General Financial Inclusion","a1050000000sg1c","Youth","Uganda","No","kyengera","","UGA",50,10375,"kyengera, Uganda","[(0.2943859, 32.5022993)]","Kyengera; Wakiso; Central Region; Uganda","(0.2943859, 32.5022993)",0.2943859,32.5022993,"West Nile, Uganda","(0.3157239, 32.575568)",70
"1347",65,"BRAC Uganda","General Financial Inclusion","a1050000000wezZ","General","Uganda","No","kyengera","","UGA",7,7700,"kyengera, Uganda","[(0.2943859, 32.5022993)]","Kyengera; Wakiso; Central Region; Uganda","(0.2943859, 32.5022993)",0.2943859,32.5022993,"West Nile, Uganda","(0.3157239, 32.575568)",70
"2309",112,"Micro Credit for Development and Transformation SACCO (MCDT SACCO)","General Financial Inclusion","a1050000000wf0J","General","Uganda","No","Kampala","(0.3155556, 32.5655556)","UGA",41,10000,"Kampala, Uganda","[(0.3475964, 32.5825197)]","Kampala; Kampala; Central Region; Uganda","(0.3475964, 32.5825197)",0.3475964,32.5825197,"Kampala, Uganda","(0.3475964, 32.5825197)",NA
"8095",163,"HOFOKAM","General Financial Inclusion","a1050000000PPOd","Higher Education","Uganda","No","Bundibugyo","","UGA",5,2150,"Bundibugyo, Uganda","[(0.707531, 30.0636349)]","Bundibugyo; Bundibugyo; Western Region; Uganda","(0.707531, 30.0636349)",0.707531,30.0636349,"Western, Uganda","(0.2580521, 30.5279096)",90
"8096",163,"HOFOKAM","General Financial Inclusion","a1050000002XDTW","Primary/Secondary Education","Uganda","No","Bundibugyo","","UGA",77,24150,"Bundibugyo, Uganda","[(0.707531, 30.0636349)]","Bundibugyo; Bundibugyo; Western Region; Uganda","(0.707531, 30.0636349)",0.707531,30.0636349,"Western, Uganda","(0.2580521, 30.5279096)",90
"8097",163,"HOFOKAM","General Financial Inclusion","a1050000000tZGS","Rural Inclusion","Uganda","No","Bundibugyo","","UGA",1165,365900,"Bundibugyo, Uganda","[(0.707531, 30.0636349)]","Bundibugyo; Bundibugyo; Western Region; Uganda","(0.707531, 30.0636349)",0.707531,30.0636349,"Western, Uganda","(0.2580521, 30.5279096)",90
"8098",163,"HOFOKAM","General Financial Inclusion","a1050000002XDTW","Primary/Secondary Education","Uganda","No","Fort Portal","","UGA",55,13350,"Fort Portal, Uganda","[(0.6546257, 30.2801166)]","Fort Portal; Kabarole; Western Region; Uganda","(0.6546257, 30.2801166)",0.6546257,30.2801166,"Western, Uganda","(0.2580521, 30.5279096)",90
"8099",163,"HOFOKAM","General Financial Inclusion","a1050000000wf13","General","Uganda","No","Fort Portal","","UGA",58,27000,"Fort Portal, Uganda","[(0.6546257, 30.2801166)]","Fort Portal; Kabarole; Western Region; Uganda","(0.6546257, 30.2801166)",0.6546257,30.2801166,"Western, Uganda","(0.2580521, 30.5279096)",90
"8100",163,"HOFOKAM","General Financial Inclusion","a1050000000PPOd","Higher Education","Uganda","No","Fort Portal","","UGA",5,2125,"Fort Portal, Uganda","[(0.6546257, 30.2801166)]","Fort Portal; Kabarole; Western Region; Uganda","(0.6546257, 30.2801166)",0.6546257,30.2801166,"Western, Uganda","(0.2580521, 30.5279096)",90
"8101",163,"HOFOKAM","General Financial Inclusion","a1050000000tZGS","Rural Inclusion","Uganda","No","Fort Portal","","UGA",1932,446375,"Fort Portal, Uganda","[(0.6546257, 30.2801166)]","Fort Portal; Kabarole; Western Region; Uganda","(0.6546257, 30.2801166)",0.6546257,30.2801166,"Western, Uganda","(0.2580521, 30.5279096)",90
"8102",163,"HOFOKAM","General Financial Inclusion","a1050000002XDTW","Primary/Secondary Education","Uganda","No","Hoima","","UGA",8,2650,"Hoima, Uganda","[(1.4273554, 31.3484448)]","Hoima; Hoima; Western Region; Uganda","(1.4273554, 31.3484448)",1.4273554,31.3484448,"Southwest, Uganda","(1.373333, 32.290275)",90
"8103",163,"HOFOKAM","General Financial Inclusion","a1050000000wf13","General","Uganda","No","Hoima","","UGA",11,1250,"Hoima, Uganda","[(1.4273554, 31.3484448)]","Hoima; Hoima; Western Region; Uganda","(1.4273554, 31.3484448)",1.4273554,31.3484448,"Southwest, Uganda","(1.373333, 32.290275)",90
"8104",163,"HOFOKAM","General Financial Inclusion","a1050000000PPOd","Higher Education","Uganda","No","Hoima","","UGA",1,200,"Hoima, Uganda","[(1.4273554, 31.3484448)]","Hoima; Hoima; Western Region; Uganda","(1.4273554, 31.3484448)",1.4273554,31.3484448,"Southwest, Uganda","(1.373333, 32.290275)",90
"8105",163,"HOFOKAM","General Financial Inclusion","a1050000000tZGS","Rural Inclusion","Uganda","No","Hoima","","UGA",1484,496075,"Hoima, Uganda","[(1.4273554, 31.3484448)]","Hoima; Hoima; Western Region; Uganda","(1.4273554, 31.3484448)",1.4273554,31.3484448,"Southwest, Uganda","(1.373333, 32.290275)",90
"8106",163,"HOFOKAM","General Financial Inclusion","a1050000000tZGS","Rural Inclusion","Uganda","No","Igayaza","","UGA",1,150,"Igayaza, Uganda","[(0.4528367999999999, 32.6136146)]","Gayaza; Wakiso; Central Region; Uganda","(0.4528367999999999, 32.6136146)",0.4528368,32.6136146,"Central 2, Uganda","(0.3729261, 32.6357573)",90
"8107",163,"HOFOKAM","General Financial Inclusion","a1050000000tZGS","Rural Inclusion","Uganda","No","Kabwoya _Hoima","","UGA",1,450,"Kabwoya _Hoima, Uganda","[(1.2313258, 31.066474)]","Kabwoya; Hoima; Western Region; Uganda","(1.2313258, 31.066474)",1.2313258,31.066474,"Western, Uganda","(0.2580521, 30.5279096)",90
"8108",163,"HOFOKAM","General Financial Inclusion","a1050000002XDTW","Primary/Secondary Education","Uganda","No","Kagadi","","UGA",5,1125,"Kagadi, Uganda","[(0.9400761, 30.8125638)]","Kagadi; Kibale; Western Region; Uganda","(0.9400761, 30.8125638)",0.9400761,30.8125638,"Western, Uganda","(0.2580521, 30.5279096)",90
"8109",163,"HOFOKAM","General Financial Inclusion","a1050000000PPOd","Higher Education","Uganda","No","Kagadi","","UGA",2,925,"Kagadi, Uganda","[(0.9400761, 30.8125638)]","Kagadi; Kibale; Western Region; Uganda","(0.9400761, 30.8125638)",0.9400761,30.8125638,"Western, Uganda","(0.2580521, 30.5279096)",90
"8110",163,"HOFOKAM","General Financial Inclusion","a1050000000tZGS","Rural Inclusion","Uganda","No","Kagadi","","UGA",1037,263000,"Kagadi, Uganda","[(0.9400761, 30.8125638)]","Kagadi; Kibale; Western Region; Uganda","(0.9400761, 30.8125638)",0.9400761,30.8125638,"Western, Uganda","(0.2580521, 30.5279096)",90
"8111",163,"HOFOKAM","General Financial Inclusion","a1050000000wf13","General","Uganda","No","Kagadi","","UGA",14,5475,"Kagadi, Uganda","[(0.9400761, 30.8125638)]","Kagadi; Kibale; Western Region; Uganda","(0.9400761, 30.8125638)",0.9400761,30.8125638,"Western, Uganda","(0.2580521, 30.5279096)",90
"8112",163,"HOFOKAM","General Financial Inclusion","a1050000000wf13","General","Uganda","No","Kamwenge","","UGA",514,139725,"Kamwenge, Uganda","[(0.225793, 30.4818446)]","Kamwenge; Western Region; Uganda","(0.225793, 30.4818446)",0.225793,30.4818446,"Western, Uganda","(0.2580521, 30.5279096)",90
"8113",163,"HOFOKAM","General Financial Inclusion","a1050000000tZGS","Rural Inclusion","Uganda","No","Kamwenge","","UGA",1590,476300,"Kamwenge, Uganda","[(0.225793, 30.4818446)]","Kamwenge; Western Region; Uganda","(0.225793, 30.4818446)",0.225793,30.4818446,"Western, Uganda","(0.2580521, 30.5279096)",90
"8114",163,"HOFOKAM","General Financial Inclusion","a1050000000PPOd","Higher Education","Uganda","No","Kamwenge","","UGA",6,3225,"Kamwenge, Uganda","[(0.225793, 30.4818446)]","Kamwenge; Western Region; Uganda","(0.225793, 30.4818446)",0.225793,30.4818446,"Western, Uganda","(0.2580521, 30.5279096)",90
"8115",163,"HOFOKAM","General Financial Inclusion","a1050000002XDTW","Primary/Secondary Education","Uganda","No","Kamwenge","","UGA",29,7225,"Kamwenge, Uganda","[(0.225793, 30.4818446)]","Kamwenge; Western Region; Uganda","(0.225793, 30.4818446)",0.225793,30.4818446,"Western, Uganda","(0.2580521, 30.5279096)",90
"8116",163,"HOFOKAM","General Financial Inclusion","a1050000000wf13","General","Uganda","No","Karuguuza","","UGA",2,1025,"Karuguuza, Uganda","[(0.7917628999999999, 30.2268112)]","Uganda; Kabarole; Western Region","(0.7917628999999999, 30.2268112)",0.7917629,30.2268112,"Western, Uganda","(0.2580521, 30.5279096)",90
"8117",163,"HOFOKAM","General Financial Inclusion","a1050000000tZGS","Rural Inclusion","Uganda","No","Karuguuza","","UGA",3,1000,"Karuguuza, Uganda","[(0.7917628999999999, 30.2268112)]","Uganda; Kabarole; Western Region","(0.7917628999999999, 30.2268112)",0.7917629,30.2268112,"Western, Uganda","(0.2580521, 30.5279096)",90
"8118",163,"HOFOKAM","General Financial Inclusion","a1050000000tZGS","Rural Inclusion","Uganda","No","Kasese","","UGA",922,272825,"Kasese, Uganda","[(0.1698986, 30.078078)]","Kasese; Kasese; Western Region; Uganda","(0.1698986, 30.078078)",0.1698986,30.078078,"Western, Uganda","(0.2580521, 30.5279096)",90
"8119",163,"HOFOKAM","General Financial Inclusion","a1050000002XDTW","Primary/Secondary Education","Uganda","No","Kasese","","UGA",47,24275,"Kasese, Uganda","[(0.1698986, 30.078078)]","Kasese; Kasese; Western Region; Uganda","(0.1698986, 30.078078)",0.1698986,30.078078,"Western, Uganda","(0.2580521, 30.5279096)",90
"8120",163,"HOFOKAM","General Financial Inclusion","a1050000000PPOd","Higher Education","Uganda","No","Kasese","","UGA",6,4700,"Kasese, Uganda","[(0.1698986, 30.078078)]","Kasese; Kasese; Western Region; Uganda","(0.1698986, 30.078078)",0.1698986,30.078078,"Western, Uganda","(0.2580521, 30.5279096)",90
"8121",163,"HOFOKAM","General Financial Inclusion","a1050000000wf13","General","Uganda","No","Kasese","","UGA",370,144475,"Kasese, Uganda","[(0.1698986, 30.078078)]","Kasese; Kasese; Western Region; Uganda","(0.1698986, 30.078078)",0.1698986,30.078078,"Western, Uganda","(0.2580521, 30.5279096)",90
"8122",163,"HOFOKAM","General Financial Inclusion","a1050000000wf13","General","Uganda","No","Katikara","","UGA",1,575,"Katikara, Uganda","[(0.9708434999999999, 31.1970627)]","Uganda; Kibale; Western Region","(0.9708434999999999, 31.1970627)",0.9708435,31.1970627,"Western, Uganda","(0.2580521, 30.5279096)",90
"8123",163,"HOFOKAM","General Financial Inclusion","a1050000000tZGS","Rural Inclusion","Uganda","No","Kibaale","","UGA",1,1125,"Kibaale, Uganda","[(0.7682547, 31.0776593)]","Kibaale; Kibale; Western Region; Uganda","(0.7682547, 31.0776593)",0.7682547,31.0776593,"Western, Uganda","(0.2580521, 30.5279096)",90
"8124",163,"HOFOKAM","General Financial Inclusion","a1050000000tZGS","Rural Inclusion","Uganda","No","Kiryandongo","","UGA",2,2025,"Kiryandongo, Uganda","[(2.0179907, 32.0837445)]","Kiryandongo; Western Region; Uganda","(2.0179907, 32.0837445)",2.0179907,32.0837445,"Southwest, Uganda","(1.373333, 32.290275)",90
"8125",163,"HOFOKAM","General Financial Inclusion","a1050000000tZGS","Rural Inclusion","Uganda","No","Kyenjojo","","UGA",1613,344175,"Kyenjojo, Uganda","[(0.6092923, 30.6401231)]","Kyenjojo; Kyenjojo; Western Region; Uganda","(0.6092923, 30.6401231)",0.6092923,30.6401231,"Western, Uganda","(0.2580521, 30.5279096)",90
"8126",163,"HOFOKAM","General Financial Inclusion","a1050000000PPOd","Higher Education","Uganda","No","Kyenjojo","","UGA",12,1625,"Kyenjojo, Uganda","[(0.6092923, 30.6401231)]","Kyenjojo; Kyenjojo; Western Region; Uganda","(0.6092923, 30.6401231)",0.6092923,30.6401231,"Western, Uganda","(0.2580521, 30.5279096)",90
"8127",163,"HOFOKAM","General Financial Inclusion","a1050000002XDTW","Primary/Secondary Education","Uganda","No","Kyenjojo","","UGA",22,2850,"Kyenjojo, Uganda","[(0.6092923, 30.6401231)]","Kyenjojo; Kyenjojo; Western Region; Uganda","(0.6092923, 30.6401231)",0.6092923,30.6401231,"Western, Uganda","(0.2580521, 30.5279096)",90
"8128",163,"HOFOKAM","General Financial Inclusion","a1050000000wf13","General","Uganda","No","Kyenjojo","","UGA",32,8700,"Kyenjojo, Uganda","[(0.6092923, 30.6401231)]","Kyenjojo; Kyenjojo; Western Region; Uganda","(0.6092923, 30.6401231)",0.6092923,30.6401231,"Western, Uganda","(0.2580521, 30.5279096)",90
"8129",163,"HOFOKAM","General Financial Inclusion","a1050000000wf13","General","Uganda","No","Masindi","","UGA",240,114900,"Masindi, Uganda","[(1.6873134, 31.7138458)]","Masindi; Masindi; Western Region; Uganda","(1.6873134, 31.7138458)",1.6873134,31.7138458,"Southwest, Uganda","(1.373333, 32.290275)",90
"8130",163,"HOFOKAM","General Financial Inclusion","a1050000002XDTW","Primary/Secondary Education","Uganda","No","Masindi","","UGA",33,13200,"Masindi, Uganda","[(1.6873134, 31.7138458)]","Masindi; Masindi; Western Region; Uganda","(1.6873134, 31.7138458)",1.6873134,31.7138458,"Southwest, Uganda","(1.373333, 32.290275)",90
"8131",163,"HOFOKAM","General Financial Inclusion","a1050000000PPOd","Higher Education","Uganda","No","Masindi","","UGA",13,6750,"Masindi, Uganda","[(1.6873134, 31.7138458)]","Masindi; Masindi; Western Region; Uganda","(1.6873134, 31.7138458)",1.6873134,31.7138458,"Southwest, Uganda","(1.373333, 32.290275)",90
"8132",163,"HOFOKAM","General Financial Inclusion","a1050000000tZGS","Rural Inclusion","Uganda","No","Masindi","","UGA",440,178625,"Masindi, Uganda","[(1.6873134, 31.7138458)]","Masindi; Masindi; Western Region; Uganda","(1.6873134, 31.7138458)",1.6873134,31.7138458,"Southwest, Uganda","(1.373333, 32.290275)",90
"11868",222,"UGAFODE Microfinance","General Financial Inclusion","a1050000000wf1n","General","Uganda","No","APAC","","UGA",3,2025,"APAC, Uganda","[(1.9850906, 32.5344456)]","Apac; Apac; Northern Region; Uganda","(1.9850906, 32.5344456)",1.9850906,32.5344456,"Southwest, Uganda","(1.373333, 32.290275)",60
"11869",222,"UGAFODE Microfinance","General Financial Inclusion","a1050000000tXgR","Rural Inclusion","Uganda","No","APAC","","UGA",8,675,"APAC, Uganda","[(1.9850906, 32.5344456)]","Apac; Apac; Northern Region; Uganda","(1.9850906, 32.5344456)",1.9850906,32.5344456,"Southwest, Uganda","(1.373333, 32.290275)",60
"11870",222,"UGAFODE Microfinance","General Financial Inclusion","a1050000000wf1n","General","Uganda","No","Aleptong","","UGA",1,775,"Aleptong, Uganda","[(2.2545773, 33.3486147)]","Alebtong; Northern Region; Uganda","(2.2545773, 33.3486147)",2.2545773,33.3486147,"North, Uganda","(2.8780034, 32.7181375)",60
"11871",222,"UGAFODE Microfinance","General Financial Inclusion","a1050000000tXgR","Rural Inclusion","Uganda","No","Aleptong","","UGA",6,550,"Aleptong, Uganda","[(2.2545773, 33.3486147)]","Alebtong; Northern Region; Uganda","(2.2545773, 33.3486147)",2.2545773,33.3486147,"North, Uganda","(2.8780034, 32.7181375)",60
"11872",222,"UGAFODE Microfinance","General Financial Inclusion","a1050000000slOe","Green","Uganda","No","Bombo Road","","UGA",1,300,"Bombo Road, Uganda","[(0.3296026, 32.5741337)]","Bombo Road; Kampala; Kampala; Central Region; Uganda","(0.3296026, 32.5741337)",0.3296026,32.5741337,"West Nile, Uganda","(0.3157239, 32.575568)",60
"11873",222,"UGAFODE Microfinance","General Financial Inclusion","a1050000000tXgR","Rural Inclusion","Uganda","No","Bombo Road","","UGA",31,8975,"Bombo Road, Uganda","[(0.3296026, 32.5741337)]","Bombo Road; Kampala; Kampala; Central Region; Uganda","(0.3296026, 32.5741337)",0.3296026,32.5741337,"West Nile, Uganda","(0.3157239, 32.575568)",60
"11874",222,"UGAFODE Microfinance","General Financial Inclusion","a10500000081HG5","Primary/Secondary Education","Uganda","No","Bombo Road","","UGA",4,2700,"Bombo Road, Uganda","[(0.3296026, 32.5741337)]","Bombo Road; Kampala; Kampala; Central Region; Uganda","(0.3296026, 32.5741337)",0.3296026,32.5741337,"West Nile, Uganda","(0.3157239, 32.575568)",60
"11875",222,"UGAFODE Microfinance","General Financial Inclusion","a1050000000wf1n","General","Uganda","No","Bombo Road","","UGA",344,131525,"Bombo Road, Uganda","[(0.3296026, 32.5741337)]","Bombo Road; Kampala; Kampala; Central Region; Uganda","(0.3296026, 32.5741337)",0.3296026,32.5741337,"West Nile, Uganda","(0.3157239, 32.575568)",60
"11876",222,"UGAFODE Microfinance","General Financial Inclusion","a10500000081MVH","Agriculture","Uganda","No","Bombo Road","","UGA",7,3575,"Bombo Road, Uganda","[(0.3296026, 32.5741337)]","Bombo Road; Kampala; Kampala; Central Region; Uganda","(0.3296026, 32.5741337)",0.3296026,32.5741337,"West Nile, Uganda","(0.3157239, 32.575568)",60
"11877",222,"UGAFODE Microfinance","General Financial Inclusion","a1050000000slPE","Housing Improvement","Uganda","Yes","Bombo Road","","UGA",30,21650,"Bombo Road, Uganda","[(0.3296026, 32.5741337)]","Bombo Road; Kampala; Kampala; Central Region; Uganda","(0.3296026, 32.5741337)",0.3296026,32.5741337,"West Nile, Uganda","(0.3157239, 32.575568)",60
"11878",222,"UGAFODE Microfinance","General Financial Inclusion","a1050000000tXgR","Rural Inclusion","Uganda","No","DOKOLO","","UGA",5,675,"DOKOLO, Uganda","[(1.9636421, 33.0338767)]","Dokolo; Dokolo; Northern Region; Uganda","(1.9636421, 33.0338767)",1.9636421,33.0338767,"Eastern, Uganda","(1.2692186, 33.438353)",60
"11879",222,"UGAFODE Microfinance","General Financial Inclusion","a1050000000wf1n","General","Uganda","No","DOKOLO","","UGA",1,300,"DOKOLO, Uganda","[(1.9636421, 33.0338767)]","Dokolo; Dokolo; Northern Region; Uganda","(1.9636421, 33.0338767)",1.9636421,33.0338767,"Eastern, Uganda","(1.2692186, 33.438353)",60
"11880",222,"UGAFODE Microfinance","General Financial Inclusion","a1050000000slOe","Green","Uganda","No","Ibanda","(-0.1166667, 30.4833333)","UGA",1,450,"Ibanda, Uganda","[(-0.096489, 30.5739579)]","['Ibanda', 'Western Region', 'Uganda']","(-0.096489, 30.5739579)",-0.096489,30.5739579,"Western, Uganda","(0.2580521, 30.5279096)",60
"11881",222,"UGAFODE Microfinance","General Financial Inclusion","a1050000000wf1n","General","Uganda","No","Ibanda","(-0.1166667, 30.4833333)","UGA",126,57850,"Ibanda, Uganda","[(-0.096489, 30.5739579)]","['Ibanda', 'Western Region', 'Uganda']","(-0.096489, 30.5739579)",-0.096489,30.5739579,"Western, Uganda","(0.2580521, 30.5279096)",60
"11882",222,"UGAFODE Microfinance","General Financial Inclusion","a1050000000tXgR","Rural Inclusion","Uganda","No","Ibanda","(-0.1166667, 30.4833333)","UGA",146,92025,"Ibanda, Uganda","[(-0.096489, 30.5739579)]","['Ibanda', 'Western Region', 'Uganda']","(-0.096489, 30.5739579)",-0.096489,30.5739579,"Western, Uganda","(0.2580521, 30.5279096)",60
"11883",222,"UGAFODE Microfinance","General Financial Inclusion","a10500000081MVH","Agriculture","Uganda","No","Ibanda","(-0.1166667, 30.4833333)","UGA",16,13000,"Ibanda, Uganda","[(-0.096489, 30.5739579)]","['Ibanda', 'Western Region', 'Uganda']","(-0.096489, 30.5739579)",-0.096489,30.5739579,"Western, Uganda","(0.2580521, 30.5279096)",60
"11884",222,"UGAFODE Microfinance","General Financial Inclusion","a1050000000slPE","Housing Improvement","Uganda","Yes","Ibanda","(-0.1166667, 30.4833333)","UGA",1,1500,"Ibanda, Uganda","[(-0.096489, 30.5739579)]","['Ibanda', 'Western Region', 'Uganda']","(-0.096489, 30.5739579)",-0.096489,30.5739579,"Western, Uganda","(0.2580521, 30.5279096)",60
"11885",222,"UGAFODE Microfinance","General Financial Inclusion","a1050000000slPE","Housing Improvement","Uganda","Yes","Ishaka","(-0.5430556, 30.1369444)","UGA",1,1125,"Ishaka, Uganda","[(-0.5467930999999999, 30.1387218)]","Ishaka; Bushenyi; Western Region; Uganda","(-0.5467930999999999, 30.1387218)",-0.5467931,30.1387218,"Western, Uganda","(0.2580521, 30.5279096)",60
"11886",222,"UGAFODE Microfinance","General Financial Inclusion","a1050000000slOe","Green","Uganda","No","Ishaka","(-0.5430556, 30.1369444)","UGA",22,13975,"Ishaka, Uganda","[(-0.5467930999999999, 30.1387218)]","Ishaka; Bushenyi; Western Region; Uganda","(-0.5467930999999999, 30.1387218)",-0.5467931,30.1387218,"Western, Uganda","(0.2580521, 30.5279096)",60
"11887",222,"UGAFODE Microfinance","General Financial Inclusion","a1050000000tXgR","Rural Inclusion","Uganda","No","Ishaka","(-0.5430556, 30.1369444)","UGA",137,64225,"Ishaka, Uganda","[(-0.5467930999999999, 30.1387218)]","Ishaka; Bushenyi; Western Region; Uganda","(-0.5467930999999999, 30.1387218)",-0.5467931,30.1387218,"Western, Uganda","(0.2580521, 30.5279096)",60
"11888",222,"UGAFODE Microfinance","General Financial Inclusion","a1050000000wf1n","General","Uganda","No","Ishaka","(-0.5430556, 30.1369444)","UGA",112,55700,"Ishaka, Uganda","[(-0.5467930999999999, 30.1387218)]","Ishaka; Bushenyi; Western Region; Uganda","(-0.5467930999999999, 30.1387218)",-0.5467931,30.1387218,"Western, Uganda","(0.2580521, 30.5279096)",60
"11889",222,"UGAFODE Microfinance","General Financial Inclusion","a10500000081MVH","Agriculture","Uganda","No","Ishaka","(-0.5430556, 30.1369444)","UGA",9,6900,"Ishaka, Uganda","[(-0.5467930999999999, 30.1387218)]","Ishaka; Bushenyi; Western Region; Uganda","(-0.5467930999999999, 30.1387218)",-0.5467931,30.1387218,"Western, Uganda","(0.2580521, 30.5279096)",60
"11890",222,"UGAFODE Microfinance","General Financial Inclusion","a1050000000slOe","Green","Uganda","No","Jinja","(0.5833333, 33.25)","UGA",1,1400,"Jinja, Uganda","[(0.4478565999999999, 33.2026122)]","Jinja; Jinja; Eastern Region; Uganda","(0.4478565999999999, 33.2026122)",0.4478566,33.2026122,"Central 2, Uganda","(0.3729261, 32.6357573)",60
"11891",222,"UGAFODE Microfinance","General Financial Inclusion","a1050000000slPE","Housing Improvement","Uganda","Yes","Jinja","(0.5833333, 33.25)","UGA",27,11175,"Jinja, Uganda","[(0.4478565999999999, 33.2026122)]","Jinja; Jinja; Eastern Region; Uganda","(0.4478565999999999, 33.2026122)",0.4478566,33.2026122,"Central 2, Uganda","(0.3729261, 32.6357573)",60
"11892",222,"UGAFODE Microfinance","General Financial Inclusion","a1050000000tXgR","Rural Inclusion","Uganda","No","Jinja","(0.5833333, 33.25)","UGA",140,47400,"Jinja, Uganda","[(0.4478565999999999, 33.2026122)]","Jinja; Jinja; Eastern Region; Uganda","(0.4478565999999999, 33.2026122)",0.4478566,33.2026122,"Central 2, Uganda","(0.3729261, 32.6357573)",60
"11893",222,"UGAFODE Microfinance","General Financial Inclusion","a10500000081HG5","Primary/Secondary Education","Uganda","No","Jinja","(0.5833333, 33.25)","UGA",4,1250,"Jinja, Uganda","[(0.4478565999999999, 33.2026122)]","Jinja; Jinja; Eastern Region; Uganda","(0.4478565999999999, 33.2026122)",0.4478566,33.2026122,"Central 2, Uganda","(0.3729261, 32.6357573)",60
"11894",222,"UGAFODE Microfinance","General Financial Inclusion","a10500000081MVH","Agriculture","Uganda","No","Jinja","(0.5833333, 33.25)","UGA",13,8650,"Jinja, Uganda","[(0.4478565999999999, 33.2026122)]","Jinja; Jinja; Eastern Region; Uganda","(0.4478565999999999, 33.2026122)",0.4478566,33.2026122,"Central 2, Uganda","(0.3729261, 32.6357573)",60
"11895",222,"UGAFODE Microfinance","General Financial Inclusion","a1050000000wf1n","General","Uganda","No","Jinja","(0.5833333, 33.25)","UGA",365,101700,"Jinja, Uganda","[(0.4478565999999999, 33.2026122)]","Jinja; Jinja; Eastern Region; Uganda","(0.4478565999999999, 33.2026122)",0.4478566,33.2026122,"Central 2, Uganda","(0.3729261, 32.6357573)",60
"11896",222,"UGAFODE Microfinance","General Financial Inclusion","a1050000000tXgR","Rural Inclusion","Uganda","No","KOLE","","UGA",5,575,"KOLE, Uganda","[(2.3030748, 32.7633036)]","Kole; Northern Region; Uganda","(2.3030748, 32.7633036)",2.3030748,32.7633036,"North, Uganda","(2.8780034, 32.7181375)",60
"11897",222,"UGAFODE Microfinance","General Financial Inclusion","a10500000081MVH","Agriculture","Uganda","No","KOLE","","UGA",6,975,"KOLE, Uganda","[(2.3030748, 32.7633036)]","Kole; Northern Region; Uganda","(2.3030748, 32.7633036)",2.3030748,32.7633036,"North, Uganda","(2.8780034, 32.7181375)",60
"11898",222,"UGAFODE Microfinance","General Financial Inclusion","a1050000000slPE","Housing Improvement","Uganda","Yes","KOLE","","UGA",1,425,"KOLE, Uganda","[(2.3030748, 32.7633036)]","Kole; Northern Region; Uganda","(2.3030748, 32.7633036)",2.3030748,32.7633036,"North, Uganda","(2.8780034, 32.7181375)",60
"11899",222,"UGAFODE Microfinance","General Financial Inclusion","a1050000000wf1n","General","Uganda","No","KOLE","","UGA",3,2250,"KOLE, Uganda","[(2.3030748, 32.7633036)]","Kole; Northern Region; Uganda","(2.3030748, 32.7633036)",2.3030748,32.7633036,"North, Uganda","(2.8780034, 32.7181375)",60
"11900",222,"UGAFODE Microfinance","General Financial Inclusion","a10500000081MVH","Agriculture","Uganda","No","Kagadi","","UGA",4,2000,"Kagadi, Uganda","[(0.9400761, 30.8125638)]","Kagadi; Kibale; Western Region; Uganda","(0.9400761, 30.8125638)",0.9400761,30.8125638,"Western, Uganda","(0.2580521, 30.5279096)",60
"11901",222,"UGAFODE Microfinance","General Financial Inclusion","a1050000000wf1n","General","Uganda","No","Kagadi","","UGA",63,35275,"Kagadi, Uganda","[(0.9400761, 30.8125638)]","Kagadi; Kibale; Western Region; Uganda","(0.9400761, 30.8125638)",0.9400761,30.8125638,"Western, Uganda","(0.2580521, 30.5279096)",60
"11902",222,"UGAFODE Microfinance","General Financial Inclusion","a1050000000tXgR","Rural Inclusion","Uganda","No","Kagadi","","UGA",89,45325,"Kagadi, Uganda","[(0.9400761, 30.8125638)]","Kagadi; Kibale; Western Region; Uganda","(0.9400761, 30.8125638)",0.9400761,30.8125638,"Western, Uganda","(0.2580521, 30.5279096)",60
"11903",222,"UGAFODE Microfinance","General Financial Inclusion","a1050000000slPE","Housing Improvement","Uganda","Yes","Kagadi","","UGA",1,625,"Kagadi, Uganda","[(0.9400761, 30.8125638)]","Kagadi; Kibale; Western Region; Uganda","(0.9400761, 30.8125638)",0.9400761,30.8125638,"Western, Uganda","(0.2580521, 30.5279096)",60
"11904",222,"UGAFODE Microfinance","General Financial Inclusion","a1050000000wf1n","General","Uganda","No","Kampala","(0.3155556, 32.5655556)","UGA",589,220750,"Kampala, Uganda","[(0.3475964, 32.5825197)]","Kampala; Kampala; Central Region; Uganda","(0.3475964, 32.5825197)",0.3475964,32.5825197,"Kampala, Uganda","(0.3475964, 32.5825197)",60
"11905",222,"UGAFODE Microfinance","General Financial Inclusion","a1050000000slOe","Green","Uganda","No","Kampala","(0.3155556, 32.5655556)","UGA",2,1800,"Kampala, Uganda","[(0.3475964, 32.5825197)]","Kampala; Kampala; Central Region; Uganda","(0.3475964, 32.5825197)",0.3475964,32.5825197,"Kampala, Uganda","(0.3475964, 32.5825197)",60
"11906",222,"UGAFODE Microfinance","General Financial Inclusion","a1050000002VfSy","Vulnerable Women","Uganda","Yes","Kampala","(0.3155556, 32.5655556)","UGA",9,6800,"Kampala, Uganda","[(0.3475964, 32.5825197)]","Kampala; Kampala; Central Region; Uganda","(0.3475964, 32.5825197)",0.3475964,32.5825197,"Kampala, Uganda","(0.3475964, 32.5825197)",60
"11907",222,"UGAFODE Microfinance","General Financial Inclusion","a1050000000tXgR","Rural Inclusion","Uganda","No","Kampala","(0.3155556, 32.5655556)","UGA",51,22100,"Kampala, Uganda","[(0.3475964, 32.5825197)]","Kampala; Kampala; Central Region; Uganda","(0.3475964, 32.5825197)",0.3475964,32.5825197,"Kampala, Uganda","(0.3475964, 32.5825197)",60
"11908",222,"UGAFODE Microfinance","General Financial Inclusion","a1050000000slPE","Housing Improvement","Uganda","Yes","Kampala","(0.3155556, 32.5655556)","UGA",13,8450,"Kampala, Uganda","[(0.3475964, 32.5825197)]","Kampala; Kampala; Central Region; Uganda","(0.3475964, 32.5825197)",0.3475964,32.5825197,"Kampala, Uganda","(0.3475964, 32.5825197)",60
"11909",222,"UGAFODE Microfinance","General Financial Inclusion","a10500000081MVH","Agriculture","Uganda","No","Kampala","(0.3155556, 32.5655556)","UGA",1,1400,"Kampala, Uganda","[(0.3475964, 32.5825197)]","Kampala; Kampala; Central Region; Uganda","(0.3475964, 32.5825197)",0.3475964,32.5825197,"Kampala, Uganda","(0.3475964, 32.5825197)",60
"11910",222,"UGAFODE Microfinance","General Financial Inclusion","a10500000081MVH","Agriculture","Uganda","No","Kyotera","","UGA",21,6025,"Kyotera, Uganda","[(-0.6358988, 31.5455637)]","Kyotera; Rakai; Central Region; Uganda","(-0.6358988, 31.5455637)",-0.6358988,31.5455637,"East Central, Uganda","(0.2540775, 31.99280779999999)",60
"11911",222,"UGAFODE Microfinance","General Financial Inclusion","a1050000000wf1n","General","Uganda","No","Kyotera","","UGA",124,43875,"Kyotera, Uganda","[(-0.6358988, 31.5455637)]","Kyotera; Rakai; Central Region; Uganda","(-0.6358988, 31.5455637)",-0.6358988,31.5455637,"East Central, Uganda","(0.2540775, 31.99280779999999)",60
"11912",222,"UGAFODE Microfinance","General Financial Inclusion","a1050000000tXgR","Rural Inclusion","Uganda","No","Kyotera","","UGA",149,70675,"Kyotera, Uganda","[(-0.6358988, 31.5455637)]","Kyotera; Rakai; Central Region; Uganda","(-0.6358988, 31.5455637)",-0.6358988,31.5455637,"East Central, Uganda","(0.2540775, 31.99280779999999)",60
"11913",222,"UGAFODE Microfinance","General Financial Inclusion","a1050000000slOe","Green","Uganda","No","Kyotera","","UGA",2,1500,"Kyotera, Uganda","[(-0.6358988, 31.5455637)]","Kyotera; Rakai; Central Region; Uganda","(-0.6358988, 31.5455637)",-0.6358988,31.5455637,"East Central, Uganda","(0.2540775, 31.99280779999999)",60
"11914",222,"UGAFODE Microfinance","General Financial Inclusion","a1050000000slPE","Housing Improvement","Uganda","Yes","Kyotera","","UGA",2,1450,"Kyotera, Uganda","[(-0.6358988, 31.5455637)]","Kyotera; Rakai; Central Region; Uganda","(-0.6358988, 31.5455637)",-0.6358988,31.5455637,"East Central, Uganda","(0.2540775, 31.99280779999999)",60
"11915",222,"UGAFODE Microfinance","General Financial Inclusion","a10500000081MVH","Agriculture","Uganda","No","Lira","","UGA",21,1800,"Lira, Uganda","[(2.2580829, 32.8874067)]","Lira; Lira; Northern Region; Uganda","(2.2580829, 32.8874067)",2.2580829,32.8874067,"North, Uganda","(2.8780034, 32.7181375)",60
"11916",222,"UGAFODE Microfinance","General Financial Inclusion","a1050000000tXgR","Rural Inclusion","Uganda","No","Lira","","UGA",37,11050,"Lira, Uganda","[(2.2580829, 32.8874067)]","Lira; Lira; Northern Region; Uganda","(2.2580829, 32.8874067)",2.2580829,32.8874067,"North, Uganda","(2.8780034, 32.7181375)",60
"11917",222,"UGAFODE Microfinance","General Financial Inclusion","a1050000000slPE","Housing Improvement","Uganda","Yes","Lira","","UGA",4,1925,"Lira, Uganda","[(2.2580829, 32.8874067)]","Lira; Lira; Northern Region; Uganda","(2.2580829, 32.8874067)",2.2580829,32.8874067,"North, Uganda","(2.8780034, 32.7181375)",60
"11918",222,"UGAFODE Microfinance","General Financial Inclusion","a1050000000wf1n","General","Uganda","No","Lira","","UGA",204,55275,"Lira, Uganda","[(2.2580829, 32.8874067)]","Lira; Lira; Northern Region; Uganda","(2.2580829, 32.8874067)",2.2580829,32.8874067,"North, Uganda","(2.8780034, 32.7181375)",60
"11919",222,"UGAFODE Microfinance","General Financial Inclusion","a1050000000slPE","Housing Improvement","Uganda","Yes","Lyantonde","","UGA",1,1125,"Lyantonde, Uganda","[(-0.4075041, 31.1567203)]","Lyantonde; Lyantonde; Central Region; Uganda","(-0.4075041, 31.1567203)",-0.4075041,31.1567203,"Western, Uganda","(0.2580521, 30.5279096)",60
"11920",222,"UGAFODE Microfinance","General Financial Inclusion","a10500000081MVH","Agriculture","Uganda","No","Lyantonde","","UGA",1,1125,"Lyantonde, Uganda","[(-0.4075041, 31.1567203)]","Lyantonde; Lyantonde; Central Region; Uganda","(-0.4075041, 31.1567203)",-0.4075041,31.1567203,"Western, Uganda","(0.2580521, 30.5279096)",60
"11921",222,"UGAFODE Microfinance","General Financial Inclusion","a1050000000tXgR","Rural Inclusion","Uganda","No","Lyantonde","","UGA",80,48050,"Lyantonde, Uganda","[(-0.4075041, 31.1567203)]","Lyantonde; Lyantonde; Central Region; Uganda","(-0.4075041, 31.1567203)",-0.4075041,31.1567203,"Western, Uganda","(0.2580521, 30.5279096)",60
"11922",222,"UGAFODE Microfinance","General Financial Inclusion","a1050000000slOe","Green","Uganda","No","Lyantonde","","UGA",2,2650,"Lyantonde, Uganda","[(-0.4075041, 31.1567203)]","Lyantonde; Lyantonde; Central Region; Uganda","(-0.4075041, 31.1567203)",-0.4075041,31.1567203,"Western, Uganda","(0.2580521, 30.5279096)",60
"11923",222,"UGAFODE Microfinance","General Financial Inclusion","a1050000000wf1n","General","Uganda","No","Lyantonde","","UGA",15,9675,"Lyantonde, Uganda","[(-0.4075041, 31.1567203)]","Lyantonde; Lyantonde; Central Region; Uganda","(-0.4075041, 31.1567203)",-0.4075041,31.1567203,"Western, Uganda","(0.2580521, 30.5279096)",60
"11924",222,"UGAFODE Microfinance","General Financial Inclusion","a1050000000wf1n","General","Uganda","No","Mbale","(1.0644444, 34.1794444)","UGA",1,850,"Mbale, Uganda","[(1.0784436, 34.1810057)]","Mbale; Mbale; Eastern Region; Uganda","(1.0784436, 34.1810057)",1.0784436,34.1810057,"Eastern, Uganda","(1.2692186, 33.438353)",60
"11925",222,"UGAFODE Microfinance","General Financial Inclusion","a10500000081MVH","Agriculture","Uganda","No","Mbale","(1.0644444, 34.1794444)","UGA",2,1975,"Mbale, Uganda","[(1.0784436, 34.1810057)]","Mbale; Mbale; Eastern Region; Uganda","(1.0784436, 34.1810057)",1.0784436,34.1810057,"Eastern, Uganda","(1.2692186, 33.438353)",60
"11926",222,"UGAFODE Microfinance","General Financial Inclusion","a1050000000slPE","Housing Improvement","Uganda","Yes","Mbarara","(-0.4166667, 30.75)","UGA",2,1425,"Mbarara, Uganda","[(-0.6071596, 30.6545022)]","Mbarara; Mbarara; Western Region; Uganda","(-0.6071596, 30.6545022)",-0.6071596,30.6545022,"Western, Uganda","(0.2580521, 30.5279096)",60
"11927",222,"UGAFODE Microfinance","General Financial Inclusion","a10500000081MVH","Agriculture","Uganda","No","Mbarara","(-0.4166667, 30.75)","UGA",6,2625,"Mbarara, Uganda","[(-0.6071596, 30.6545022)]","Mbarara; Mbarara; Western Region; Uganda","(-0.6071596, 30.6545022)",-0.6071596,30.6545022,"Western, Uganda","(0.2580521, 30.5279096)",60
"11928",222,"UGAFODE Microfinance","General Financial Inclusion","a1050000000wf1n","General","Uganda","No","Mbarara","(-0.4166667, 30.75)","UGA",48,12675,"Mbarara, Uganda","[(-0.6071596, 30.6545022)]","Mbarara; Mbarara; Western Region; Uganda","(-0.6071596, 30.6545022)",-0.6071596,30.6545022,"Western, Uganda","(0.2580521, 30.5279096)",60
"11929",222,"UGAFODE Microfinance","General Financial Inclusion","a1050000000slOe","Green","Uganda","No","Mbarara","(-0.4166667, 30.75)","UGA",9,2450,"Mbarara, Uganda","[(-0.6071596, 30.6545022)]","Mbarara; Mbarara; Western Region; Uganda","(-0.6071596, 30.6545022)",-0.6071596,30.6545022,"Western, Uganda","(0.2580521, 30.5279096)",60
"11930",222,"UGAFODE Microfinance","General Financial Inclusion","a1050000000tXgR","Rural Inclusion","Uganda","No","Mbarara","(-0.4166667, 30.75)","UGA",47,19100,"Mbarara, Uganda","[(-0.6071596, 30.6545022)]","Mbarara; Mbarara; Western Region; Uganda","(-0.6071596, 30.6545022)",-0.6071596,30.6545022,"Western, Uganda","(0.2580521, 30.5279096)",60
"11931",222,"UGAFODE Microfinance","General Financial Inclusion","a1050000000wf1n","General","Uganda","No","Mpigi","(0.0833333, 32.0)","UGA",120,56425,"Mpigi, Uganda","[(-0.0632715, 32.0837445)]","Mpigi; Central Region; Uganda","(-0.0632715, 32.0837445)",-0.0632715,32.0837445,"East Central, Uganda","(0.2540775, 31.99280779999999)",60
"11932",222,"UGAFODE Microfinance","General Financial Inclusion","a1050000000slOe","Green","Uganda","No","Mpigi","(0.0833333, 32.0)","UGA",9,3000,"Mpigi, Uganda","[(-0.0632715, 32.0837445)]","Mpigi; Central Region; Uganda","(-0.0632715, 32.0837445)",-0.0632715,32.0837445,"East Central, Uganda","(0.2540775, 31.99280779999999)",60
"11933",222,"UGAFODE Microfinance","General Financial Inclusion","a10500000081MVH","Agriculture","Uganda","No","Mpigi","(0.0833333, 32.0)","UGA",16,7850,"Mpigi, Uganda","[(-0.0632715, 32.0837445)]","Mpigi; Central Region; Uganda","(-0.0632715, 32.0837445)",-0.0632715,32.0837445,"East Central, Uganda","(0.2540775, 31.99280779999999)",60
"11934",222,"UGAFODE Microfinance","General Financial Inclusion","a1050000000slPE","Housing Improvement","Uganda","Yes","Mpigi","(0.0833333, 32.0)","UGA",13,9250,"Mpigi, Uganda","[(-0.0632715, 32.0837445)]","Mpigi; Central Region; Uganda","(-0.0632715, 32.0837445)",-0.0632715,32.0837445,"East Central, Uganda","(0.2540775, 31.99280779999999)",60
"11935",222,"UGAFODE Microfinance","General Financial Inclusion","a1050000000tXgR","Rural Inclusion","Uganda","No","Mpigi","(0.0833333, 32.0)","UGA",140,53950,"Mpigi, Uganda","[(-0.0632715, 32.0837445)]","Mpigi; Central Region; Uganda","(-0.0632715, 32.0837445)",-0.0632715,32.0837445,"East Central, Uganda","(0.2540775, 31.99280779999999)",60
"11936",222,"UGAFODE Microfinance","General Financial Inclusion","a1050000000wf1n","General","Uganda","No","Nansana","","UGA",1,700,"Nansana, Uganda","[(0.3696651, 32.5287884)]","Nansana; Wakiso; Central Region; Uganda","(0.3696651, 32.5287884)",0.3696651,32.5287884,"Kampala, Uganda","(0.3475964, 32.5825197)",60
"11937",222,"UGAFODE Microfinance","General Financial Inclusion","a1050000000tXgR","Rural Inclusion","Uganda","No","Nansana","","UGA",1,250,"Nansana, Uganda","[(0.3696651, 32.5287884)]","Nansana; Wakiso; Central Region; Uganda","(0.3696651, 32.5287884)",0.3696651,32.5287884,"Kampala, Uganda","(0.3475964, 32.5825197)",60
"11938",222,"UGAFODE Microfinance","General Financial Inclusion","a1050000000tXgR","Rural Inclusion","Uganda","No","Ndejje","","UGA",1,200,"Ndejje, Uganda","[(0.61187, 32.4758917)]","Uganda; Luwero; Central Region","(0.61187, 32.4758917)",0.61187,32.4758917,"Kampala, Uganda","(0.3475964, 32.5825197)",60
"11939",222,"UGAFODE Microfinance","General Financial Inclusion","a1050000000slPE","Housing Improvement","Uganda","Yes","Ntungamo","(-0.9166667, 30.25)","UGA",13,3250,"Ntungamo, Uganda","[(-0.8750755, 30.2656955)]","Ntungamo; Ntungamo; Western Region; Uganda","(-0.8750755, 30.2656955)",-0.8750755,30.2656955,"Western, Uganda","(0.2580521, 30.5279096)",60
"11940",222,"UGAFODE Microfinance","General Financial Inclusion","a10500000081MVH","Agriculture","Uganda","No","Ntungamo","(-0.9166667, 30.25)","UGA",6,1900,"Ntungamo, Uganda","[(-0.8750755, 30.2656955)]","Ntungamo; Ntungamo; Western Region; Uganda","(-0.8750755, 30.2656955)",-0.8750755,30.2656955,"Western, Uganda","(0.2580521, 30.5279096)",60
"11941",222,"UGAFODE Microfinance","General Financial Inclusion","a1050000000wf1n","General","Uganda","No","Ntungamo","(-0.9166667, 30.25)","UGA",33,15150,"Ntungamo, Uganda","[(-0.8750755, 30.2656955)]","Ntungamo; Ntungamo; Western Region; Uganda","(-0.8750755, 30.2656955)",-0.8750755,30.2656955,"Western, Uganda","(0.2580521, 30.5279096)",60
"11942",222,"UGAFODE Microfinance","General Financial Inclusion","a1050000000slOe","Green","Uganda","No","Ntungamo","(-0.9166667, 30.25)","UGA",4,1475,"Ntungamo, Uganda","[(-0.8750755, 30.2656955)]","Ntungamo; Ntungamo; Western Region; Uganda","(-0.8750755, 30.2656955)",-0.8750755,30.2656955,"Western, Uganda","(0.2580521, 30.5279096)",60
"11943",222,"UGAFODE Microfinance","General Financial Inclusion","a1050000000tXgR","Rural Inclusion","Uganda","No","Ntungamo","(-0.9166667, 30.25)","UGA",69,33925,"Ntungamo, Uganda","[(-0.8750755, 30.2656955)]","Ntungamo; Ntungamo; Western Region; Uganda","(-0.8750755, 30.2656955)",-0.8750755,30.2656955,"Western, Uganda","(0.2580521, 30.5279096)",60
"11944",222,"UGAFODE Microfinance","General Financial Inclusion","a1050000000wf1n","General","Uganda","No","Oyam","","UGA",9,1150,"Oyam, Uganda","[(2.2776281, 32.4467238)]","Oyam; Northern Region; Uganda","(2.2776281, 32.4467238)",2.2776281,32.4467238,"North, Uganda","(2.8780034, 32.7181375)",60
"11945",222,"UGAFODE Microfinance","General Financial Inclusion","a10500000081MVH","Agriculture","Uganda","No","Rubaga Road","","UGA",1,425,"Rubaga Road, Uganda","[(0.3105404, 32.5649196)]","Rubaga Road; Central Kampala; Kampala; Kampala; Central Region; Uganda","(0.3105404, 32.5649196)",0.3105404,32.5649196,"West Nile, Uganda","(0.3157239, 32.575568)",60
"11946",222,"UGAFODE Microfinance","General Financial Inclusion","a1050000002VfSy","Vulnerable Women","Uganda","Yes","Rubaga Road","","UGA",1,300,"Rubaga Road, Uganda","[(0.3105404, 32.5649196)]","Rubaga Road; Central Kampala; Kampala; Kampala; Central Region; Uganda","(0.3105404, 32.5649196)",0.3105404,32.5649196,"West Nile, Uganda","(0.3157239, 32.575568)",60
"11947",222,"UGAFODE Microfinance","General Financial Inclusion","a1050000000slPE","Housing Improvement","Uganda","Yes","Rubaga Road","","UGA",12,7675,"Rubaga Road, Uganda","[(0.3105404, 32.5649196)]","Rubaga Road; Central Kampala; Kampala; Kampala; Central Region; Uganda","(0.3105404, 32.5649196)",0.3105404,32.5649196,"West Nile, Uganda","(0.3157239, 32.575568)",60
"11948",222,"UGAFODE Microfinance","General Financial Inclusion","a1050000000tXgR","Rural Inclusion","Uganda","No","Rubaga Road","","UGA",24,9275,"Rubaga Road, Uganda","[(0.3105404, 32.5649196)]","Rubaga Road; Central Kampala; Kampala; Kampala; Central Region; Uganda","(0.3105404, 32.5649196)",0.3105404,32.5649196,"West Nile, Uganda","(0.3157239, 32.575568)",60
"11949",222,"UGAFODE Microfinance","General Financial Inclusion","a1050000000wf1n","General","Uganda","No","Rubaga Road","","UGA",208,92800,"Rubaga Road, Uganda","[(0.3105404, 32.5649196)]","Rubaga Road; Central Kampala; Kampala; Kampala; Central Region; Uganda","(0.3105404, 32.5649196)",0.3105404,32.5649196,"West Nile, Uganda","(0.3157239, 32.575568)",60
"11950",222,"UGAFODE Microfinance","General Financial Inclusion","a1050000002VfSy","Vulnerable Women","Uganda","Yes","Rukungiri","","UGA",5,1375,"Rukungiri, Uganda","[(-0.7911387999999999, 29.924903)]","Rukungiri; Rukungiri; Western Region; Uganda","(-0.7911387999999999, 29.924903)",-0.7911388,29.924903,"Western, Uganda","(0.2580521, 30.5279096)",60
"11951",222,"UGAFODE Microfinance","General Financial Inclusion","a10500000081MVH","Agriculture","Uganda","No","Rukungiri","","UGA",8,6650,"Rukungiri, Uganda","[(-0.7911387999999999, 29.924903)]","Rukungiri; Rukungiri; Western Region; Uganda","(-0.7911387999999999, 29.924903)",-0.7911388,29.924903,"Western, Uganda","(0.2580521, 30.5279096)",60
"11952",222,"UGAFODE Microfinance","General Financial Inclusion","a1050000000slPE","Housing Improvement","Uganda","Yes","Rukungiri","","UGA",19,15425,"Rukungiri, Uganda","[(-0.7911387999999999, 29.924903)]","Rukungiri; Rukungiri; Western Region; Uganda","(-0.7911387999999999, 29.924903)",-0.7911388,29.924903,"Western, Uganda","(0.2580521, 30.5279096)",60
"11953",222,"UGAFODE Microfinance","General Financial Inclusion","a1050000000wf1n","General","Uganda","No","Rukungiri","","UGA",170,73375,"Rukungiri, Uganda","[(-0.7911387999999999, 29.924903)]","Rukungiri; Rukungiri; Western Region; Uganda","(-0.7911387999999999, 29.924903)",-0.7911388,29.924903,"Western, Uganda","(0.2580521, 30.5279096)",60
"11954",222,"UGAFODE Microfinance","General Financial Inclusion","a1050000000slOe","Green","Uganda","No","Rukungiri","","UGA",2,1025,"Rukungiri, Uganda","[(-0.7911387999999999, 29.924903)]","Rukungiri; Rukungiri; Western Region; Uganda","(-0.7911387999999999, 29.924903)",-0.7911388,29.924903,"Western, Uganda","(0.2580521, 30.5279096)",60
"11955",222,"UGAFODE Microfinance","General Financial Inclusion","a1050000000tXgR","Rural Inclusion","Uganda","No","Rukungiri","","UGA",167,79475,"Rukungiri, Uganda","[(-0.7911387999999999, 29.924903)]","Rukungiri; Rukungiri; Western Region; Uganda","(-0.7911387999999999, 29.924903)",-0.7911388,29.924903,"Western, Uganda","(0.2580521, 30.5279096)",60
"11956",222,"UGAFODE Microfinance","General Financial Inclusion","a1050000000slOe","Green","Uganda","No","Rushere","","UGA",1,1400,"Rushere, Uganda","[(-0.210388, 30.9370746)]","Rushere; Kiruhura; Western Region; Uganda","(-0.210388, 30.9370746)",-0.210388,30.9370746,"Western, Uganda","(0.2580521, 30.5279096)",60
"11957",222,"UGAFODE Microfinance","General Financial Inclusion","a10500000081MVH","Agriculture","Uganda","No","Rushere","","UGA",7,6625,"Rushere, Uganda","[(-0.210388, 30.9370746)]","Rushere; Kiruhura; Western Region; Uganda","(-0.210388, 30.9370746)",-0.210388,30.9370746,"Western, Uganda","(0.2580521, 30.5279096)",60
"11958",222,"UGAFODE Microfinance","General Financial Inclusion","a1050000000slPE","Housing Improvement","Uganda","Yes","Rushere","","UGA",2,2025,"Rushere, Uganda","[(-0.210388, 30.9370746)]","Rushere; Kiruhura; Western Region; Uganda","(-0.210388, 30.9370746)",-0.210388,30.9370746,"Western, Uganda","(0.2580521, 30.5279096)",60
"11959",222,"UGAFODE Microfinance","General Financial Inclusion","a1050000000wf1n","General","Uganda","No","Rushere","","UGA",27,13625,"Rushere, Uganda","[(-0.210388, 30.9370746)]","Rushere; Kiruhura; Western Region; Uganda","(-0.210388, 30.9370746)",-0.210388,30.9370746,"Western, Uganda","(0.2580521, 30.5279096)",60
"11960",222,"UGAFODE Microfinance","General Financial Inclusion","a1050000000tXgR","Rural Inclusion","Uganda","No","Rushere","","UGA",73,41675,"Rushere, Uganda","[(-0.210388, 30.9370746)]","Rushere; Kiruhura; Western Region; Uganda","(-0.210388, 30.9370746)",-0.210388,30.9370746,"Western, Uganda","(0.2580521, 30.5279096)",60
"11961",222,"UGAFODE Microfinance","General Financial Inclusion","a10500000081MVH","Agriculture","Uganda","No","Sembabule","","UGA",4,950,"Sembabule, Uganda","[(-0.08163750000000002, 31.4599012)]","Sembabule; Sembabule; Central Region; Uganda","(-0.08163750000000002, 31.4599012)",-0.0816375,31.4599012,"East Central, Uganda","(0.2540775, 31.99280779999999)",60
"11962",222,"UGAFODE Microfinance","General Financial Inclusion","a1050000000wf1n","General","Uganda","No","Sembabule","","UGA",22,7700,"Sembabule, Uganda","[(-0.08163750000000002, 31.4599012)]","Sembabule; Sembabule; Central Region; Uganda","(-0.08163750000000002, 31.4599012)",-0.0816375,31.4599012,"East Central, Uganda","(0.2540775, 31.99280779999999)",60
"11963",222,"UGAFODE Microfinance","General Financial Inclusion","a1050000000tXgR","Rural Inclusion","Uganda","No","Sembabule","","UGA",35,17525,"Sembabule, Uganda","[(-0.08163750000000002, 31.4599012)]","Sembabule; Sembabule; Central Region; Uganda","(-0.08163750000000002, 31.4599012)",-0.0816375,31.4599012,"East Central, Uganda","(0.2540775, 31.99280779999999)",60
"11964",222,"UGAFODE Microfinance","General Financial Inclusion","a1050000002VfSy","Vulnerable Women","Uganda","Yes","Sembabule","","UGA",3,950,"Sembabule, Uganda","[(-0.08163750000000002, 31.4599012)]","Sembabule; Sembabule; Central Region; Uganda","(-0.08163750000000002, 31.4599012)",-0.0816375,31.4599012,"East Central, Uganda","(0.2540775, 31.99280779999999)",60
"11965",222,"UGAFODE Microfinance","General Financial Inclusion","a1050000000slOe","Green","Uganda","No","Sembabule","","UGA",11,3275,"Sembabule, Uganda","[(-0.08163750000000002, 31.4599012)]","Sembabule; Sembabule; Central Region; Uganda","(-0.08163750000000002, 31.4599012)",-0.0816375,31.4599012,"East Central, Uganda","(0.2540775, 31.99280779999999)",60
"11966",222,"UGAFODE Microfinance","General Financial Inclusion","a1050000000slOe","Green","Uganda","No","Wakiso","","UGA",1,1200,"Wakiso, Uganda","[(0.3987229, 32.47927440000001)]","Wakiso; Wakiso; Central Region; Uganda","(0.3987229, 32.47927440000001)",0.3987229,32.4792744,"Kampala, Uganda","(0.3475964, 32.5825197)",60
"11967",222,"UGAFODE Microfinance","General Financial Inclusion","a1050000000tXgR","Rural Inclusion","Uganda","No","Wakiso","","UGA",1,1475,"Wakiso, Uganda","[(0.3987229, 32.47927440000001)]","Wakiso; Wakiso; Central Region; Uganda","(0.3987229, 32.47927440000001)",0.3987229,32.4792744,"Kampala, Uganda","(0.3475964, 32.5825197)",60
"11968",222,"UGAFODE Microfinance","General Financial Inclusion","a1050000000wf1n","General","Uganda","No","Wakiso","","UGA",15,12225,"Wakiso, Uganda","[(0.3987229, 32.47927440000001)]","Wakiso; Wakiso; Central Region; Uganda","(0.3987229, 32.47927440000001)",0.3987229,32.4792744,"Kampala, Uganda","(0.3475964, 32.5825197)",60
"11969",222,"UGAFODE Microfinance","General Financial Inclusion","a1050000000slPE","Housing Improvement","Uganda","Yes","Wakiso","","UGA",2,1150,"Wakiso, Uganda","[(0.3987229, 32.47927440000001)]","Wakiso; Wakiso; Central Region; Uganda","(0.3987229, 32.47927440000001)",0.3987229,32.4792744,"Kampala, Uganda","(0.3475964, 32.5825197)",60
"11970",222,"UGAFODE Microfinance","General Financial Inclusion","a10500000081MVH","Agriculture","Uganda","No","Wakiso","","UGA",1,1400,"Wakiso, Uganda","[(0.3987229, 32.47927440000001)]","Wakiso; Wakiso; Central Region; Uganda","(0.3987229, 32.47927440000001)",0.3987229,32.4792744,"Kampala, Uganda","(0.3475964, 32.5825197)",60
"12806",287,"Youth Initiative for Community Empowerment","Agriculture","a1050000000voIl","Agriculture","Uganda","Yes","Mubende","(0.5, 31.6666667)","UGA",30,2700,"Mubende, Uganda","[(0.5772758, 31.5370003)]","Mubende; Central Region; Uganda","(0.5772758, 31.5370003)",0.5772758,31.5370003,"East Central, Uganda","(0.2540775, 31.99280779999999)",NA
"12834",290,"UpEnergy","Clean Energy","a1050000000wFlJ","Retailer Finance","Uganda","No","Bugiri","(-0.25, 33.75)","UGA",1,3900,"Bugiri, Uganda","[(0.5671364999999999, 33.7461847)]","Bugiri; Namayingo; Eastern Region; Uganda","(0.5671364999999999, 33.7461847)",0.5671365,33.7461847,"Eastern, Uganda","(1.2692186, 33.438353)",NA
"12835",290,"UpEnergy","Clean Energy","a1050000000wFlJ","Retailer Finance","Uganda","No","Bulambuli","","UGA",1,3950,"Bulambuli, Uganda","[(1.4327861, 34.3088255)]","Bulambuli; Bulambuli; Eastern Region; Uganda","(1.4327861, 34.3088255)",1.4327861,34.3088255,"Eastern, Uganda","(1.2692186, 33.438353)",NA
"12836",290,"UpEnergy","Clean Energy","a1050000000wFlJ","Retailer Finance","Uganda","No","Iganga","(0.6091667, 33.4686111)","UGA",1,3750,"Iganga, Uganda","[(0.6045832999999999, 33.4719832)]","Iganga; Iganga; Eastern Region; Uganda","(0.6045832999999999, 33.4719832)",0.6045833,33.4719832,"Eastern, Uganda","(1.2692186, 33.438353)",NA
"12837",290,"UpEnergy","Clean Energy","a1050000000wFlJ","Retailer Finance","Uganda","No","Kampala","(0.3155556, 32.5655556)","UGA",2,8325,"Kampala, Uganda","[(0.3475964, 32.5825197)]","Kampala; Kampala; Central Region; Uganda","(0.3475964, 32.5825197)",0.3475964,32.5825197,"Kampala, Uganda","(0.3475964, 32.5825197)",NA
"12838",290,"UpEnergy","Clean Energy","a1050000000wFlJ","Retailer Finance","Uganda","No","Lira","","UGA",2,8375,"Lira, Uganda","[(2.2580829, 32.8874067)]","Lira; Lira; Northern Region; Uganda","(2.2580829, 32.8874067)",2.2580829,32.8874067,"North, Uganda","(2.8780034, 32.7181375)",NA
"12839",290,"UpEnergy","Clean Energy","a1050000000wFlJ","Retailer Finance","Uganda","No","Mbale","(1.0644444, 34.1794444)","UGA",1,3450,"Mbale, Uganda","[(1.0784436, 34.1810057)]","Mbale; Mbale; Eastern Region; Uganda","(1.0784436, 34.1810057)",1.0784436,34.1810057,"Eastern, Uganda","(1.2692186, 33.438353)",NA
"12840",290,"UpEnergy","Clean Energy","a1050000000wFlJ","Retailer Finance","Uganda","No","Tororo","(0.75, 34.0833333)","UGA",2,7475,"Tororo, Uganda","[(0.6782273999999999, 34.1865669)]","Tororo; Tororo; Eastern Region; Uganda","(0.6782273999999999, 34.1865669)",0.6782274,34.1865669,"Eastern, Uganda","(1.2692186, 33.438353)",NA
"12841",290,"UpEnergy","Clean Energy","a1050000000wFlJ","Retailer Finance","Uganda","No","Wakiso","","UGA",1,4500,"Wakiso, Uganda","[(0.3987229, 32.47927440000001)]","Wakiso; Wakiso; Central Region; Uganda","(0.3987229, 32.47927440000001)",0.3987229,32.4792744,"Kampala, Uganda","(0.3475964, 32.5825197)",NA
"12842",290,"UpEnergy","Clean Energy","a1050000000wFlJ","Retailer Finance","Uganda","No","Zombo","","UGA",1,3975,"Zombo, Uganda","[(2.5544293, 30.9417368)]","['Zombo', 'Northern Region', 'Uganda']","(2.5544293, 30.9417368)",2.5544293,30.9417368,"Southwest, Uganda","(1.373333, 32.290275)",NA
"13230",315,"Yunus Social Business (YSB)","SME Financial Inclusion","a1050000002VO1d","SME","Uganda","No","Kampala","(0.3155556, 32.5655556)","UGA",2,80000,"Kampala, Uganda","[(0.3475964, 32.5825197)]","Kampala; Kampala; Central Region; Uganda","(0.3475964, 32.5825197)",0.3475964,32.5825197,"Kampala, Uganda","(0.3475964, 32.5825197)",0
"13291",329,"Impact Carbon","Clean Energy","a1050000002VVGB","Safe Water System for Institution","Uganda","Yes","Amuria","","UGA",1,900,"Amuria, Uganda","[(2.1130856, 33.70706190000001)]","Amuria; Eastern Region; Uganda","(2.1130856, 33.70706190000001)",2.1130856,33.7070619,"Karamoja, Uganda","(2.8308738, 34.1531947)",40
"13292",329,"Impact Carbon","Clean Energy","a1050000002VVGB","Safe Water System for Institution","Uganda","Yes","Arua","","UGA",8,8150,"Arua, Uganda","[(3.0303299, 30.907304)]","Arua; Arua; Northern Region; Uganda","(3.0303299, 30.907304)",3.0303299,30.907304,"North, Uganda","(2.8780034, 32.7181375)",40
"13293",329,"Impact Carbon","Clean Energy","a1050000002VVGB","Safe Water System for Institution","Uganda","Yes","Bugiri","(-0.25, 33.75)","UGA",2,3550,"Bugiri, Uganda","[(0.5671364999999999, 33.7461847)]","Bugiri; Namayingo; Eastern Region; Uganda","(0.5671364999999999, 33.7461847)",0.5671365,33.7461847,"Eastern, Uganda","(1.2692186, 33.438353)",40
"13294",329,"Impact Carbon","Clean Energy","a1050000002VVGB","Safe Water System for Institution","Uganda","Yes","Buikwe","(0.3375, 33.0105556)","UGA",8,9875,"Buikwe, Uganda","[(0.3144046, 32.98883190000001)]","Buikwe; Central Region; Uganda","(0.3144046, 32.98883190000001)",0.3144046,32.9888319,"Central 2, Uganda","(0.3729261, 32.6357573)",40
"13295",329,"Impact Carbon","Clean Energy","a1050000002VVGB","Safe Water System for Institution","Uganda","Yes","Bulenge","","UGA",1,1150,"Bulenge, Uganda","[(0.3255456, 32.5031163)]","Bulenga; Wakiso; Central Region; Uganda","(0.3255456, 32.5031163)",0.3255456,32.5031163,"West Nile, Uganda","(0.3157239, 32.575568)",40
"13296",329,"Impact Carbon","Clean Energy","a1050000002VVGB","Safe Water System for Institution","Uganda","Yes","Bundibugyo","","UGA",18,23525,"Bundibugyo, Uganda","[(0.707531, 30.0636349)]","Bundibugyo; Bundibugyo; Western Region; Uganda","(0.707531, 30.0636349)",0.707531,30.0636349,"Western, Uganda","(0.2580521, 30.5279096)",40
"13297",329,"Impact Carbon","Clean Energy","a1050000002VVGB","Safe Water System for Institution","Uganda","Yes","Bushenyi","(-0.4166667, 30.1666667)","UGA",19,20300,"Bushenyi, Uganda","[(-0.4870918, 30.2051096)]","Bushenyi; Western Region; Uganda","(-0.4870918, 30.2051096)",-0.4870918,30.2051096,"Western, Uganda","(0.2580521, 30.5279096)",40
"13298",329,"Impact Carbon","Clean Energy","a1050000002VVGB","Safe Water System for Institution","Uganda","Yes","Busia","(0.5, 34.0)","UGA",1,1200,"Busia, Uganda","[(0.4706692, 34.0919803)]","Busia Uganda; Busia; Eastern Region; Uganda","(0.4706692, 34.0919803)",0.4706692,34.0919803,"Eastern, Uganda","(1.2692186, 33.438353)",40
"13299",329,"Impact Carbon","Clean Energy","a1050000002VVGB","Safe Water System for Institution","Uganda","Yes","Butaleja","","UGA",3,2525,"Butaleja, Uganda","[(0.8474921999999999, 33.84112880000001)]","Butaleja; Eastern Region; Uganda","(0.8474921999999999, 33.84112880000001)",0.8474922,33.8411288,"Eastern, Uganda","(1.2692186, 33.438353)",40
"13300",329,"Impact Carbon","Clean Energy","a1050000002VVGB","Safe Water System for Institution","Uganda","Yes","Entebbe","","UGA",1,1250,"Entebbe, Uganda","[(0.0511839, 32.463708)]","Entebbe; Wakiso; Central Region; Uganda","(0.0511839, 32.463708)",0.0511839,32.463708,"West Nile, Uganda","(0.3157239, 32.575568)",40
"13301",329,"Impact Carbon","Clean Energy","a1050000002VVGB","Safe Water System for Institution","Uganda","Yes","Fort Portal","","UGA",10,15750,"Fort Portal, Uganda","[(0.6546257, 30.2801166)]","Fort Portal; Kabarole; Western Region; Uganda","(0.6546257, 30.2801166)",0.6546257,30.2801166,"Western, Uganda","(0.2580521, 30.5279096)",40
"13302",329,"Impact Carbon","Clean Energy","a1050000002VVGB","Safe Water System for Institution","Uganda","Yes","Gulu","","UGA",1,1100,"Gulu, Uganda","[(2.7724038, 32.2880726)]","Gulu; Gulu; Northern Region; Uganda","(2.7724038, 32.2880726)",2.7724038,32.2880726,"North, Uganda","(2.8780034, 32.7181375)",40
"13303",329,"Impact Carbon","Clean Energy","a1050000002VVGB","Safe Water System for Institution","Uganda","Yes","Hoima","","UGA",17,23800,"Hoima, Uganda","[(1.4273554, 31.3484448)]","Hoima; Hoima; Western Region; Uganda","(1.4273554, 31.3484448)",1.4273554,31.3484448,"Southwest, Uganda","(1.373333, 32.290275)",40
"13304",329,"Impact Carbon","Clean Energy","a1050000002VVGB","Safe Water System for Institution","Uganda","Yes","Ibanda","(-0.1166667, 30.4833333)","UGA",7,8325,"Ibanda, Uganda","[(-0.096489, 30.5739579)]","['Ibanda', 'Western Region', 'Uganda']","(-0.096489, 30.5739579)",-0.096489,30.5739579,"Western, Uganda","(0.2580521, 30.5279096)",40
"13305",329,"Impact Carbon","Clean Energy","a1050000002VVGB","Safe Water System for Institution","Uganda","Yes","Iganga","(0.6091667, 33.4686111)","UGA",25,28900,"Iganga, Uganda","[(0.6045832999999999, 33.4719832)]","Iganga; Iganga; Eastern Region; Uganda","(0.6045832999999999, 33.4719832)",0.6045833,33.4719832,"Eastern, Uganda","(1.2692186, 33.438353)",40
"13306",329,"Impact Carbon","Clean Energy","a1050000002VVGB","Safe Water System for Institution","Uganda","Yes","Isingiro","","UGA",13,12250,"Isingiro, Uganda","[(-0.8435429999999999, 30.8039474)]","Isingiro; Western Region; Uganda","(-0.8435429999999999, 30.8039474)",-0.843543,30.8039474,"Western, Uganda","(0.2580521, 30.5279096)",40
"13307",329,"Impact Carbon","Clean Energy","a1050000002VVGB","Safe Water System for Institution","Uganda","Yes","Jinja","(0.5833333, 33.25)","UGA",9,10700,"Jinja, Uganda","[(0.4478565999999999, 33.2026122)]","Jinja; Jinja; Eastern Region; Uganda","(0.4478565999999999, 33.2026122)",0.4478566,33.2026122,"Central 2, Uganda","(0.3729261, 32.6357573)",40
"13308",329,"Impact Carbon","Clean Energy","a1050000002VVGB","Safe Water System for Institution","Uganda","Yes","Kabarole","","UGA",6,6725,"Kabarole, Uganda","[(0.5850791, 30.2512728)]","Kabarole; Western Region; Uganda","(0.5850791, 30.2512728)",0.5850791,30.2512728,"Western, Uganda","(0.2580521, 30.5279096)",40
"13309",329,"Impact Carbon","Clean Energy","a1050000002VVGB","Safe Water System for Institution","Uganda","Yes","Kaliro","","UGA",3,3650,"Kaliro, Uganda","[(1.0431107, 33.4831906)]","Kaliro; Eastern Region; Uganda","(1.0431107, 33.4831906)",1.0431107,33.4831906,"Eastern, Uganda","(1.2692186, 33.438353)",40
"13310",329,"Impact Carbon","Clean Energy","a1050000002VVGB","Safe Water System for Institution","Uganda","Yes","Kalungu","","UGA",1,1050,"Kalungu, Uganda","[(-0.0952831, 31.76513619999999)]","Kalungu; Central Region; Uganda","(-0.0952831, 31.76513619999999)",-0.0952831,31.7651362,"East Central, Uganda","(0.2540775, 31.99280779999999)",40
"13311",329,"Impact Carbon","Clean Energy","a1050000002VVGB","Safe Water System for Institution","Uganda","Yes","Kampala","(0.3155556, 32.5655556)","UGA",125,125575,"Kampala, Uganda","[(0.3475964, 32.5825197)]","Kampala; Kampala; Central Region; Uganda","(0.3475964, 32.5825197)",0.3475964,32.5825197,"Kampala, Uganda","(0.3475964, 32.5825197)",40
"13312",329,"Impact Carbon","Clean Energy","a1050000002VVGB","Safe Water System for Institution","Uganda","Yes","Kamuli","(1.0833333, 33.25)","UGA",4,4650,"Kamuli, Uganda","[(0.944785, 33.126717)]","Kamuli; Kamuli; Eastern Region; Uganda","(0.944785, 33.126717)",0.944785,33.126717,"Eastern, Uganda","(1.2692186, 33.438353)",40
"13313",329,"Impact Carbon","Clean Energy","a1050000002VVGB","Safe Water System for Institution","Uganda","Yes","Kamwenge","","UGA",4,4500,"Kamwenge, Uganda","[(0.225793, 30.4818446)]","Kamwenge; Western Region; Uganda","(0.225793, 30.4818446)",0.225793,30.4818446,"Western, Uganda","(0.2580521, 30.5279096)",40
"13314",329,"Impact Carbon","Clean Energy","a1050000002VVGB","Safe Water System for Institution","Uganda","Yes","Kanungu","","UGA",1,1075,"Kanungu, Uganda","[(-0.8195253, 29.742604)]","Kanungu; Western Region; Uganda","(-0.8195253, 29.742604)",-0.8195253,29.742604,"Western, Uganda","(0.2580521, 30.5279096)",40
"13315",329,"Impact Carbon","Clean Energy","a1050000002VVGB","Safe Water System for Institution","Uganda","Yes","Kapchorwa","","UGA",1,1100,"Kapchorwa, Uganda","[(1.3350205, 34.3976356)]","Kapchorwa; Eastern Region; Uganda","(1.3350205, 34.3976356)",1.3350205,34.3976356,"Eastern, Uganda","(1.2692186, 33.438353)",40
"13316",329,"Impact Carbon","Clean Energy","a1050000002VVGB","Safe Water System for Institution","Uganda","Yes","Kasese","","UGA",18,19125,"Kasese, Uganda","[(0.1698986, 30.078078)]","Kasese; Kasese; Western Region; Uganda","(0.1698986, 30.078078)",0.1698986,30.078078,"Western, Uganda","(0.2580521, 30.5279096)",40
"13317",329,"Impact Carbon","Clean Energy","a1050000002VVGB","Safe Water System for Institution","Uganda","Yes","Kayunga","(1.0, 32.8666667)","UGA",9,8575,"Kayunga, Uganda","[(0.9860182000000001, 32.85357550000001)]","Kayunga; Central Region; Uganda","(0.9860182000000001, 32.85357550000001)",0.9860182,32.8535755,"Eastern, Uganda","(1.2692186, 33.438353)",40
"13318",329,"Impact Carbon","Clean Energy","a1050000002VVGB","Safe Water System for Institution","Uganda","Yes","Kibaale","","UGA",2,3500,"Kibaale, Uganda","[(0.7682547, 31.0776593)]","Kibaale; Kibale; Western Region; Uganda","(0.7682547, 31.0776593)",0.7682547,31.0776593,"Western, Uganda","(0.2580521, 30.5279096)",40
"13319",329,"Impact Carbon","Clean Energy","a1050000002VVGB","Safe Water System for Institution","Uganda","Yes","Kiboga","","UGA",4,4775,"Kiboga, Uganda","[(0.9657589999999998, 31.7195459)]","Kiboga; Kyankwanzi; Central Region; Uganda","(0.9657589999999998, 31.7195459)",0.965759,31.7195459,"Southwest, Uganda","(1.373333, 32.290275)",40
"13320",329,"Impact Carbon","Clean Energy","a1050000002VVGB","Safe Water System for Institution","Uganda","Yes","Kiruhura","","UGA",17,6950,"Kiruhura, Uganda","[(-0.1927998, 30.8039474)]","Kiruhura; Western Region; Uganda","(-0.1927998, 30.8039474)",-0.1927998,30.8039474,"Western, Uganda","(0.2580521, 30.5279096)",40
"13321",329,"Impact Carbon","Clean Energy","a1050000002VVGB","Safe Water System for Institution","Uganda","Yes","Kisoro","","UGA",3,2975,"Kisoro, Uganda","[(-1.2834307, 29.6904746)]","Kisoro; Kisoro; Western Region; Uganda","(-1.2834307, 29.6904746)",-1.2834307,29.6904746,"Western, Uganda","(0.2580521, 30.5279096)",40
"13322",329,"Impact Carbon","Clean Energy","a1050000002VVGB","Safe Water System for Institution","Uganda","Yes","Kitgum","(3.5, 33.0)","UGA",1,875,"Kitgum, Uganda","[(3.2884847, 32.8789499)]","Kitgum; Kitgum; Northern Region; Uganda","(3.2884847, 32.8789499)",3.2884847,32.8789499,"North, Uganda","(2.8780034, 32.7181375)",40
"13323",329,"Impact Carbon","Clean Energy","a1050000002VVGB","Safe Water System for Institution","Uganda","Yes","Kumi","(1.4166667, 34.0)","UGA",1,1350,"Kumi, Uganda","[(1.4856295, 33.9331874)]","Kumi; Kumi; Eastern Region; Uganda","(1.4856295, 33.9331874)",1.4856295,33.9331874,"Eastern, Uganda","(1.2692186, 33.438353)",40
"13324",329,"Impact Carbon","Clean Energy","a1050000002VVGB","Safe Water System for Institution","Uganda","Yes","Kyegegwa","","UGA",1,1075,"Kyegegwa, Uganda","[(0.4818193, 31.0550093)]","Kyegegwa; Kyenjojo; Western Region; Uganda","(0.4818193, 31.0550093)",0.4818193,31.0550093,"Western, Uganda","(0.2580521, 30.5279096)",40
"13325",329,"Impact Carbon","Clean Energy","a1050000002VVGB","Safe Water System for Institution","Uganda","Yes","Kyenjojo","","UGA",2,3325,"Kyenjojo, Uganda","[(0.6092923, 30.6401231)]","Kyenjojo; Kyenjojo; Western Region; Uganda","(0.6092923, 30.6401231)",0.6092923,30.6401231,"Western, Uganda","(0.2580521, 30.5279096)",40
"13326",329,"Impact Carbon","Clean Energy","a1050000002VVGB","Safe Water System for Institution","Uganda","Yes","Kyotera","","UGA",2,2250,"Kyotera, Uganda","[(-0.6358988, 31.5455637)]","Kyotera; Rakai; Central Region; Uganda","(-0.6358988, 31.5455637)",-0.6358988,31.5455637,"East Central, Uganda","(0.2540775, 31.99280779999999)",40
"13327",329,"Impact Carbon","Clean Energy","a1050000002VVGB","Safe Water System for Institution","Uganda","Yes","Lira","","UGA",2,4700,"Lira, Uganda","[(2.2580829, 32.8874067)]","Lira; Lira; Northern Region; Uganda","(2.2580829, 32.8874067)",2.2580829,32.8874067,"North, Uganda","(2.8780034, 32.7181375)",40
"13328",329,"Impact Carbon","Clean Energy","a1050000002VVGB","Safe Water System for Institution","Uganda","Yes","Lugazi","(0.3772222, 32.9197222)","UGA",2,1925,"Lugazi, Uganda","[(0.3739085, 32.9381321)]","Lugazi; Mukono; Central Region; Uganda","(0.3739085, 32.9381321)",0.3739085,32.9381321,"Central 2, Uganda","(0.3729261, 32.6357573)",40
"13329",329,"Impact Carbon","Clean Energy","a1050000002VVGB","Safe Water System for Institution","Uganda","Yes","Luwero","","UGA",26,29325,"Luwero, Uganda","[(0.8271118, 32.6277455)]","Luwero; Central Region; Uganda","(0.8271118, 32.6277455)",0.8271118,32.6277455,"Central 2, Uganda","(0.3729261, 32.6357573)",40
"13330",329,"Impact Carbon","Clean Energy","a1050000002VVGB","Safe Water System for Institution","Uganda","Yes","Lwengo","","UGA",10,15475,"Lwengo, Uganda","[(-0.4165288, 31.3998995)]","Lwengo; Central Region; Uganda","(-0.4165288, 31.3998995)",-0.4165288,31.3998995,"East Central, Uganda","(0.2540775, 31.99280779999999)",40
"13331",329,"Impact Carbon","Clean Energy","a1050000002VVGB","Safe Water System for Institution","Uganda","Yes","Malaba","","UGA",4,4700,"Malaba, Uganda","[(0.6362059999999999, 34.2782765)]","Malaba; Busia County; Kenya","(0.6362059999999999, 34.2782765)",0.636206,34.2782765,"Eastern, Uganda","(1.2692186, 33.438353)",40
"13332",329,"Impact Carbon","Clean Energy","a1050000002VVGB","Safe Water System for Institution","Uganda","Yes","Masaka","","UGA",21,25175,"Masaka, Uganda","[(-0.3267383, 31.7537404)]","Masaka; Masaka; Central Region; Uganda","(-0.3267383, 31.7537404)",-0.3267383,31.7537404,"East Central, Uganda","(0.2540775, 31.99280779999999)",40
"13333",329,"Impact Carbon","Clean Energy","a1050000002VVGB","Safe Water System for Institution","Uganda","Yes","Matugga","","UGA",1,875,"Matugga, Uganda","[(0.4553013, 32.5203019)]","Matugga; Wakiso; Central Region; Uganda","(0.4553013, 32.5203019)",0.4553013,32.5203019,"Kampala, Uganda","(0.3475964, 32.5825197)",40
"13334",329,"Impact Carbon","Clean Energy","a1050000002VVGB","Safe Water System for Institution","Uganda","Yes","Mbale","(1.0644444, 34.1794444)","UGA",35,50575,"Mbale, Uganda","[(1.0784436, 34.1810057)]","Mbale; Mbale; Eastern Region; Uganda","(1.0784436, 34.1810057)",1.0784436,34.1810057,"Eastern, Uganda","(1.2692186, 33.438353)",40
"13335",329,"Impact Carbon","Clean Energy","a1050000002VVGB","Safe Water System for Institution","Uganda","Yes","Mbarara","(-0.4166667, 30.75)","UGA",17,15650,"Mbarara, Uganda","[(-0.6071596, 30.6545022)]","Mbarara; Mbarara; Western Region; Uganda","(-0.6071596, 30.6545022)",-0.6071596,30.6545022,"Western, Uganda","(0.2580521, 30.5279096)",40
"13336",329,"Impact Carbon","Clean Energy","a1050000002VVGB","Safe Water System for Institution","Uganda","Yes","Mitooma","","UGA",1,350,"Mitooma, Uganda","[(-0.6193276, 30.0202964)]","Mitooma; Western Region; Uganda","(-0.6193276, 30.0202964)",-0.6193276,30.0202964,"Western, Uganda","(0.2580521, 30.5279096)",40
"13337",329,"Impact Carbon","Clean Energy","a1050000002VVGB","Safe Water System for Institution","Uganda","Yes","Mityana","(0.4175, 32.0227778)","UGA",15,15700,"Mityana, Uganda","[(0.4016398, 32.043969)]","Mityana; Mityana; Central Region; Uganda","(0.4016398, 32.043969)",0.4016398,32.043969,"East Central, Uganda","(0.2540775, 31.99280779999999)",40
"13338",329,"Impact Carbon","Clean Energy","a1050000002VVGB","Safe Water System for Institution","Uganda","Yes","Mpigi","(0.0833333, 32.0)","UGA",9,12125,"Mpigi, Uganda","[(-0.0632715, 32.0837445)]","Mpigi; Central Region; Uganda","(-0.0632715, 32.0837445)",-0.0632715,32.0837445,"East Central, Uganda","(0.2540775, 31.99280779999999)",40
"13339",329,"Impact Carbon","Clean Energy","a1050000002VVGB","Safe Water System for Institution","Uganda","Yes","Mubende","(0.5, 31.6666667)","UGA",6,7300,"Mubende, Uganda","[(0.5772758, 31.5370003)]","Mubende; Central Region; Uganda","(0.5772758, 31.5370003)",0.5772758,31.5370003,"East Central, Uganda","(0.2540775, 31.99280779999999)",40
"13340",329,"Impact Carbon","Clean Energy","a1050000002VVGB","Safe Water System for Institution","Uganda","Yes","Mukono","(0.25, 32.9166667)","UGA",39,44900,"Mukono, Uganda","[(0.3548655, 32.7520139)]","Mukono; Mukono; Central Region; Uganda","(0.3548655, 32.7520139)",0.3548655,32.7520139,"Central 2, Uganda","(0.3729261, 32.6357573)",40
"13341",329,"Impact Carbon","Clean Energy","a1050000002VVGB","Safe Water System for Institution","Uganda","Yes","Nakaseke","","UGA",7,10900,"Nakaseke, Uganda","[(1.2230848, 32.0837445)]","Nakaseke; Central Region; Uganda","(1.2230848, 32.0837445)",1.2230848,32.0837445,"Southwest, Uganda","(1.373333, 32.290275)",40
"13342",329,"Impact Carbon","Clean Energy","a1050000002VVGB","Safe Water System for Institution","Uganda","Yes","Namugongo","","UGA",1,575,"Namugongo, Uganda","[(0.3850624, 32.6475256)]","Namugongo; Nakawa; Kampala; Kampala; Central Region; Uganda","(0.3850624, 32.6475256)",0.3850624,32.6475256,"Central 2, Uganda","(0.3729261, 32.6357573)",40
"13343",329,"Impact Carbon","Clean Energy","a1050000002VVGB","Safe Water System for Institution","Uganda","Yes","Ntungamo","(-0.9166667, 30.25)","UGA",30,23800,"Ntungamo, Uganda","[(-0.8750755, 30.2656955)]","Ntungamo; Ntungamo; Western Region; Uganda","(-0.8750755, 30.2656955)",-0.8750755,30.2656955,"Western, Uganda","(0.2580521, 30.5279096)",40
"13344",329,"Impact Carbon","Clean Energy","a1050000002VVGB","Safe Water System for Institution","Uganda","Yes","Pallisa","(1.1666667, 33.8333333)","UGA",1,1150,"Pallisa, Uganda","[(1.1706966, 33.7098569)]","Pallisa; Pallisa; Eastern Region; Uganda","(1.1706966, 33.7098569)",1.1706966,33.7098569,"Eastern, Uganda","(1.2692186, 33.438353)",40
"13345",329,"Impact Carbon","Clean Energy","a1050000002VVGB","Safe Water System for Institution","Uganda","Yes","Rakai","","UGA",4,4125,"Rakai, Uganda","[(-0.7069135, 31.5370003)]","Rakai; Central Region; Uganda","(-0.7069135, 31.5370003)",-0.7069135,31.5370003,"East Central, Uganda","(0.2540775, 31.99280779999999)",40
"13346",329,"Impact Carbon","Clean Energy","a1050000002VVGB","Safe Water System for Institution","Uganda","Yes","Rubiziri","","UGA",1,1100,"Rubiziri, Uganda","[(-0.264241, 30.1084033)]","Rubirizi; Bushenyi; Western Region; Uganda","(-0.264241, 30.1084033)",-0.264241,30.1084033,"Western, Uganda","(0.2580521, 30.5279096)",40
"13347",329,"Impact Carbon","Clean Energy","a1050000002VVGB","Safe Water System for Institution","Uganda","Yes","Rukungiri","","UGA",2,5000,"Rukungiri, Uganda","[(-0.7911387999999999, 29.924903)]","Rukungiri; Rukungiri; Western Region; Uganda","(-0.7911387999999999, 29.924903)",-0.7911388,29.924903,"Western, Uganda","(0.2580521, 30.5279096)",40
"13348",329,"Impact Carbon","Clean Energy","a1050000002VVGB","Safe Water System for Institution","Uganda","Yes","Sheema","","UGA",19,19800,"Sheema, Uganda","[(-0.5515298000000001, 30.3896651)]","Sheema; Western Region; Uganda","(-0.5515298000000001, 30.3896651)",-0.5515298,30.3896651,"Western, Uganda","(0.2580521, 30.5279096)",40
"13349",329,"Impact Carbon","Clean Energy","a1050000002VVGB","Safe Water System for Institution","Uganda","Yes","Sironko","(1.25, 34.3166667)","UGA",1,1075,"Sironko, Uganda","[(1.1607823, 34.28660910000001)]","Sironko; Eastern Region; Uganda","(1.1607823, 34.28660910000001)",1.1607823,34.2866091,"Eastern, Uganda","(1.2692186, 33.438353)",40
"13350",329,"Impact Carbon","Clean Energy","a1050000002VVGB","Safe Water System for Institution","Uganda","Yes","Soroti","(1.5833333, 33.5833333)","UGA",6,9575,"Soroti, Uganda","[(1.7131812, 33.6063855)]","['Soroti', 'Soroti', 'Eastern Region', 'Uganda']","(1.7131812, 33.6063855)",1.7131812,33.6063855,"Eastern, Uganda","(1.2692186, 33.438353)",40
"13351",329,"Impact Carbon","Clean Energy","a1050000002VVGB","Safe Water System for Institution","Uganda","Yes","Ssembabule","","UGA",1,1150,"Ssembabule, Uganda","[(0.0637715, 31.3541631)]","Sembabule; Central Region; Uganda","(0.0637715, 31.3541631)",0.0637715,31.3541631,"East Central, Uganda","(0.2540775, 31.99280779999999)",40
"13352",329,"Impact Carbon","Clean Energy","a1050000002VVGB","Safe Water System for Institution","Uganda","Yes","Tororo","(0.75, 34.0833333)","UGA",15,21850,"Tororo, Uganda","[(0.6782273999999999, 34.1865669)]","Tororo; Tororo; Eastern Region; Uganda","(0.6782273999999999, 34.1865669)",0.6782274,34.1865669,"Eastern, Uganda","(1.2692186, 33.438353)",40
"13353",329,"Impact Carbon","Clean Energy","a1050000002VVGB","Safe Water System for Institution","Uganda","Yes","Wakiso","","UGA",155,153175,"Wakiso, Uganda","[(0.3987229, 32.47927440000001)]","Wakiso; Wakiso; Central Region; Uganda","(0.3987229, 32.47927440000001)",0.3987229,32.4792744,"Kampala, Uganda","(0.3475964, 32.5825197)",40
"13354",329,"Impact Carbon","Clean Energy","a1050000002VVGB","Safe Water System for Institution","Uganda","Yes","kabale","","UGA",3,3400,"kabale, Uganda","[(-1.241956, 29.9856157)]","Kabale; Kabale; Western Region; Uganda","(-1.241956, 29.9856157)",-1.241956,29.9856157,"Western, Uganda","(0.2580521, 30.5279096)",40
"14143",412,"The Alliance for Artisan Enterprise at The Aspen Institute","Artisan","a1050000003vgYo","Artisan","Uganda","No","Kampala","(0.3155556, 32.5655556)","UGA",1,10000,"Kampala, Uganda","[(0.3475964, 32.5825197)]","Kampala; Kampala; Central Region; Uganda","(0.3475964, 32.5825197)",0.3475964,32.5825197,"Kampala, Uganda","(0.3475964, 32.5825197)",NA
"15250",482,"N/A, direct to Mavuno Harvest","DSE Direct","a10500000074hdg","SME","Uganda","No","Kampala","(0.3155556, 32.5655556)","UGA",1,50000,"Kampala, Uganda","[(0.3475964, 32.5825197)]","Kampala; Kampala; Central Region; Uganda","(0.3475964, 32.5825197)",0.3475964,32.5825197,"Kampala, Uganda","(0.3475964, 32.5825197)",NA
"15583",493,"Jibu","Water and Sanitation","a1050000007z66Y","Clean Water Delivery","Uganda","No","Ggaba","","UGA",1,1675,"Ggaba, Uganda","[(0.2572382, 32.6319844)]","Ggaba; Makindye; Kampala; Kampala; Central Region; Uganda","(0.2572382, 32.6319844)",0.2572382,32.6319844,"West Nile, Uganda","(0.3157239, 32.575568)",NA
"15586",493,"Jibu","Water and Sanitation","a1050000007z66Y","Clean Water Delivery","Uganda","No","Kawempe","","UGA",1,1750,"Kawempe, Uganda","[(0.3834752, 32.5542435)]","Kawempe; Kawempe; Kampala; Kampala; Central Region; Uganda","(0.3834752, 32.5542435)",0.3834752,32.5542435,"Kampala, Uganda","(0.3475964, 32.5825197)",NA
"15588",493,"Jibu","Water and Sanitation","a1050000007z66Y","Clean Water Delivery","Uganda","No","Makindye","(0.2844444, 32.5916667)","UGA",1,1750,"Makindye, Uganda","[(0.2781687, 32.5853469)]","Makindye; Makindye; Kampala; Kampala; Central Region; Uganda","(0.2781687, 32.5853469)",0.2781687,32.5853469,"West Nile, Uganda","(0.3157239, 32.575568)",NA
"15595",493,"Jibu","Water and Sanitation","a1050000007z66Y","Clean Water Delivery","Uganda","No","Seeta","(0.0, 31.9333333)","UGA",1,1750,"Seeta, Uganda","[(0.3669235, 32.7124903)]","Seeta; Mukono; Central Region; Uganda","(0.3669235, 32.7124903)",0.3669235,32.7124903,"Central 2, Uganda","(0.3729261, 32.6357573)",NA
"15597",495,"N/A, direct to Brent Oils","DSE Direct","a1050000007QS8Y","Equipment Purchase","Uganda","Yes","Kampala","(0.3155556, 32.5655556)","UGA",1,20000,"Kampala, Uganda","[(0.3475964, 32.5825197)]","Kampala; Kampala; Central Region; Uganda","(0.3475964, 32.5825197)",0.3475964,32.5825197,"Kampala, Uganda","(0.3475964, 32.5825197)",NA
"15711",530,"N/A, direct to Jakana Foods","DSE Direct","a1050000008OYpb","SME","Uganda","No","Kampala","(0.3155556, 32.5655556)","UGA",1,30000,"Kampala, Uganda","[(0.3475964, 32.5825197)]","Kampala; Kampala; Central Region; Uganda","(0.3475964, 32.5825197)",0.3475964,32.5825197,"Kampala, Uganda","(0.3475964, 32.5825197)",NA
"15713",532,"N/A, direct to All Across Africa","DSE Direct","a1050000008Oui7","SME","Uganda","No","Kampala","(0.3155556, 32.5655556)","UGA",1,50000,"Kampala, Uganda","[(0.3475964, 32.5825197)]","Kampala; Kampala; Central Region; Uganda","(0.3475964, 32.5825197)",0.3475964,32.5825197,"Kampala, Uganda","(0.3475964, 32.5825197)",NA
"15734",542,"N/A direct to BioLite Inc.","DSE Direct","a1050000008AQrj","Clean Cookstove","Uganda","No","Kampala","(0.3155556, 32.5655556)","UGA",1,50000,"Kampala, Uganda","[(0.3475964, 32.5825197)]","Kampala; Kampala; Central Region; Uganda","(0.3475964, 32.5825197)",0.3475964,32.5825197,"Kampala, Uganda","(0.3475964, 32.5825197)",NA
